date,latitude,longitude,id,place,siddet,city,city_id,
2016-12-20,40.8762,28.1962,2745756, MARMARA DENIZI                   ,2.1,,
2016-12-20,40.8562,28.167,2745757, MARMARA DENIZI                   ,3.1,,
2016-12-20,36.1613,36.4757,2745758, TURKIYE-SURIYE SINIR BOLGESI     ,1.8,,
2016-12-20,40.3413,41.5283,2745759, DEMIRCILER-TORTUM (ERZURUM)      ,2.0,,
2016-12-20,38.574,36.2117,2745760, ARSLANBEYLI-PINARBASI (KAYSERI)  ,1.7,,
2016-12-20,37.1472,27.8318,2745761, PINARARASI-MILAS (MUGLA)         ,2.0,,
2016-12-20,37.2175,27.8973,2745762, KAYADERE-MILAS (MUGLA)           ,2.0,,
2016-12-20,37.2677,37.1407,2745763, COCELLI-PAZARCIK (KAHRAMANMARAS) ,1.8,,
2016-12-20,37.3137,28.2628,2745764, DESTIN-YATAGAN (MUGLA)           ,1.8,,
2016-12-20,39.7553,26.2598,2745765, ALADAG-EZINE (CANAKKALE)         ,1.5,,
2016-12-20,37.2512,28.1937,2745766, PASAPINARI-(MUGLA)               ,1.9,,
2016-12-20,39.6367,29.4682,2745767, TUNCBILEK-TAVSANLI (KUTAHYA)     ,2.0,,
2016-12-20,35.4163,33.6,2745768, KIBRIS-BESPARMAK                 ,2.2,,
2016-12-20,39.6482,29.414,2745769, KARAKAYA-TAVSANLI (KUTAHYA)      ,1.9,,
2016-12-20,40.089,31.6132,2745770, DAVUTOGLAN-NALLIHAN (ANKARA)     ,1.4,,
2016-12-20,38.717,38.0478,2745771, IPEKYOLU-HEKIMHAN (MALATYA)      ,2.1,,
2016-12-20,39.2565,37.327,2745772, KARANLIK-KANGAL (SIVAS)          ,2.1,,
2016-12-20,38.9997,27.6792,2745773, ZEYTINLIOVA-AKHISAR (MANISA)     ,2.6,,
2016-12-20,35.37,32.0235,2745774, AKDENIZ                          ,3.3,,
2016-12-20,38.103,27.9638,2745775, YEGENLI-TIRE (IZMIR)             ,1.5,,
2016-12-20,35.4502,27.6658,2745776, AKDENIZ                          ,2.7,,
2016-12-20,40.762,28.7045,2745777, MARMARA DENIZI                   ,1.9,,
2016-12-20,38.6748,27.9123,2745778, OZANCA-GOLMARMARA (MANISA)       ,3.3,,
2016-12-20,38.6765,27.9143,2745779, OZANCA-GOLMARMARA (MANISA)       ,3.2,,
2016-12-19,38.9327,27.7165,2745780, BALLICA-AKHISAR (MANISA)         ,1.8,,
2016-12-19,38.9967,27.6748,2745781, ZEYTINLIOVA-AKHISAR (MANISA)     ,2.7,,
2016-12-19,37.237,28.177,2745782, CAYBUKU-(MUGLA)                  ,1.8,,
2016-12-19,37.0363,28.336,2745783, AKCAPINAR-ULA (MUGLA)            ,2.0,,
2016-12-19,41.1212,28.8982,2745784, SULTANGAZI (ISTANBUL)            ,1.3,,
2016-12-19,39.9912,32.5815,2745785, SINCAN (ANKARA)                  ,2.4,,
2016-12-19,40.7567,28.6728,2745786, MARMARA DENIZI                   ,2.4,,
2016-12-19,38.4475,43.2087,2745787, EDREMIT (VAN)                    ,1.8,,
2016-12-19,40.7687,28.6443,2745788, MARMARA DENIZI                   ,2.3,,
2016-12-19,37.2408,28.164,2745789, CAYBUKU-(MUGLA)                  ,2.0,,
2016-12-19,35.7057,27.4225,2745790, AKDENIZ                          ,2.5,,
2016-12-19,37.193,27.855,2745791, CAMKOY-MILAS (MUGLA)             ,1.8,,
2016-12-19,38.3992,43.8237,2745792, CEVIZALAN-GURPINAR (VAN)         ,3.0,,
2016-12-19,37.1583,27.8432,2745793, IKIZKOY-MILAS (MUGLA)            ,2.2,,
2016-12-19,40.734,28.7067,2745794, MARMARA DENIZI                   ,1.9,,
2016-12-19,40.7685,28.7062,2745795, MARMARA DENIZI                   ,1.8,,
2016-12-19,41.2925,28.7177,2745796, YENIKOY-ARNAVUTKOY (ISTANBUL)    ,1.9,,
2016-12-19,36.988,34.6378,2745797, SAHINPINARI-TOROSLAR (MERSIN)    ,1.7,,
2016-12-19,37.2088,27.869,2745798, KAYADERE-MILAS (MUGLA)           ,1.9,,
2016-12-19,37.2278,31.6252,2745799, KUYUCAK-AKSEKI (ANTALYA)         ,1.8,,
2016-12-19,40.7505,28.6912,2745800, MARMARA DENIZI                   ,2.2,,
2016-12-19,40.6962,28.8447,2745801, MARMARA DENIZI                   ,2.1,,
2016-12-19,36.504,29.9025,2745802, CAMLIBEL-FINIKE (ANTALYA)        ,1.8,,
2016-12-19,40.6447,39.9175,2745803, KAYAICI-ARAKLI (TRABZON)         ,2.0,,
2016-12-19,39.5712,39.6773,2745804, TATLISU-(ERZINCAN)               ,1.4,,
2016-12-19,40.2467,28.0263,2745805, YENISIGIRCI-BANDIRMA (BALIKESIR) ,2.1,,
2016-12-19,38.5773,39.1575,2745806, TADIM-(ELAZIG)                   ,1.9,,
2016-12-19,40.75,28.6785,2745807, MARMARA DENIZI                   ,2.1,,
2016-12-19,40.1588,31.7642,2745808, CANTIRLI-BEYPAZARI (ANKARA)      ,2.2,,
2016-12-19,38.9082,27.7028,2745809, BALLICA-AKHISAR (MANISA)         ,2.8,,
2016-12-19,37.188,37.206,2745810, UCGOZE-SEHITKAMIL (GAZIANTEP)    ,2.0,,
2016-12-19,40.714,28.6812,2745811, MARMARA DENIZI                   ,2.3,,
2016-12-19,37.638,38.4378,2745812, DOGANCA-SAMSAT (ADIYAMAN)        ,2.0,,
2016-12-19,36.6032,28.1725,2745813, BOZBURUN ACIKLARI-MUGLA (AKDENIZ),1.8,,
2016-12-19,37.0483,26.8683,2745814, ONIKI ADALAR (AKDENIZ)           ,2.6,,
2016-12-19,40.7578,28.6988,2745815, MARMARA DENIZI                   ,1.8,,
2016-12-19,39.7933,40.6388,2745816, EYUPOGLU-ASKALE (ERZURUM)        ,1.9,,
2016-12-19,40.723,28.6737,2745817, MARMARA DENIZI                   ,2.3,,
2016-12-19,38.8035,38.1492,2745818, BALLIKAYA-HEKIMHAN (MALATYA)     ,2.2,,
2016-12-19,39.8398,41.8495,2745819, TASLIYURT-PASINLER (ERZURUM)     ,2.5,,
2016-12-19,40.799,28.8653,2745820, MARMARA DENIZI                   ,1.9,,
2016-12-19,38.8812,27.8407,2745821, RAHMIYE-AKHISAR (MANISA)         ,2.2,,
2016-12-19,39.1608,28.353,2745822, YUREGIL-SINDIRGI (BALIKESIR)     ,1.8,,
2016-12-19,40.748,28.6727,2745823, MARMARA DENIZI                   ,1.8,,
2016-12-18,38.5715,40.8515,2745824, AGILLI-KULP (DIYARBAKIR)         ,3.0,,
2016-12-18,40.7662,28.7002,2745825, MARMARA DENIZI                   ,2.0,,
2016-12-18,40.756,28.6883,2745826, MARMARA DENIZI                   ,2.2,,
2016-12-18,36.424,29.1287,2745827, BOGAZICI-FETHIYE (MUGLA)         ,1.9,,
2016-12-18,36.9688,30.4573,2745828, BAYATBADEMLERI-KORKUTELI (ANTALYA,1.5,,
2016-12-18,40.7535,28.6967,2745829, MARMARA DENIZI                   ,1.8,,
2016-12-18,40.7475,28.6797,2745830, MARMARA DENIZI                   ,2.2,,
2016-12-18,40.7527,28.672,2745831, MARMARA DENIZI                   ,2.2,,
2016-12-18,40.7575,28.6495,2745832, MARMARA DENIZI                   ,2.0,,
2016-12-18,40.7547,28.6585,2745833, MARMARA DENIZI                   ,2.4,,
2016-12-18,40.759,28.6707,2745834, MARMARA DENIZI                   ,2.1,,
2016-12-18,40.77,28.6763,2745835, MARMARA DENIZI                   ,1.6,,
2016-12-18,40.7783,28.7635,2745836, MARMARA DENIZI                   ,1.6,,
2016-12-18,39.1002,37.7767,2745837, AKCAMAGARA-KANGAL (SIVAS)        ,2.4,,
2016-12-18,39.8283,33.5592,2745838, AHILI-(KIRIKKALE)                ,1.9,,
2016-12-18,38.9103,37.3388,2745839, ESKIBEKTASLI-GURUN (SIVAS)       ,2.3,,
2016-12-18,37.084,36.811,2745840, KATRANCI-NURDAGI (GAZIANTEP)     ,2.0,,
2016-12-18,40.7638,28.6928,2745841, MARMARA DENIZI                   ,1.6,,
2016-12-18,37.1572,27.7983,2745842, KARACAHISAR-MILAS (MUGLA)        ,1.6,,
2016-12-18,37.1843,27.824,2745843, CAMKOY-MILAS (MUGLA)             ,1.7,,
2016-12-18,37.2767,28.2035,2745844, AKGEDIK-YATAGAN (MUGLA)          ,1.9,,
2016-12-18,37.1897,27.8545,2745845, IKIZKOY-MILAS (MUGLA)            ,2.0,,
2016-12-18,37.1877,27.817,2745846, CAMKOY-MILAS (MUGLA)             ,1.9,,
2016-12-18,37.1013,30.3923,2745847, KEMERAGZI-KORKUTELI (ANTALYA)    ,2.3,,
2016-12-18,37.2593,28.1958,2745848, BAYIR-(MUGLA)                    ,2.0,,
2016-12-18,39.4967,38.6817,2745849, BUYUKKOY-ILIC (ERZINCAN)         ,2.0,,
2016-12-18,37.2262,27.8342,2745850, ASLANYAKA-MILAS (MUGLA)          ,1.6,,
2016-12-18,37.0297,27.8607,2745851, TURKEVLERI-MILAS (MUGLA)         ,1.6,,
2016-12-18,40.5638,42.2897,2745852, TIMURKISLA-SENKAYA (ERZURUM)     ,2.2,,
2016-12-18,38.759,27.843,2745853, KUMKUYUCAK-SARUHANLI (MANISA)    ,1.8,,
2016-12-18,36.5582,28.133,2745854, TASLICA-MARMARIS (MUGLA)         ,1.7,,
2016-12-18,39.3872,26.0668,2745855, BADEMLI ACIKLARI-CANAKKALE (EGE D,2.5,,
2016-12-18,35.6465,33.3992,2745856, AKDENIZ                          ,2.5,,
2016-12-18,36.903,27.9007,2745857, GOKOVA KORFEZI (AKDENIZ)         ,2.5,,
2016-12-18,39.3635,26.1177,2745858, MIDILLI ADASI (EGE DENIZI)       ,2.1,,
2016-12-18,37.801,27.0422,2745859, KUSADASI KORFEZI (EGE DENIZI)    ,2.2,,
2016-12-18,40.1498,27.1107,2745860, YANIC-BIGA (CANAKKALE)           ,1.8,,
2016-12-18,40.8382,31.0782,2745861, ISLAHIYE-(DUZCE)                 ,1.7,,
2016-12-18,36.5635,28.253,2745862, AKDENIZ                          ,2.0,,
2016-12-18,39.4068,26.0042,2745863, BADEMLI ACIKLARI-CANAKKALE (EGE D,2.6,,
2016-12-18,40.7427,28.6913,2745864, MARMARA DENIZI                   ,2.1,,
2016-12-18,40.8293,30.843,2745865, HACIMBEY-HENDEK (SAKARYA)        ,2.1,,
2016-12-18,37.1753,26.89,2745866, ONIKI ADALAR (AKDENIZ)           ,2.6,,
2016-12-18,38.7522,38.1483,2745867, KISLA-ARGUVAN (MALATYA)          ,1.9,,
2016-12-18,36.844,34.5195,2745868, EMIRLER-YENISEHIR (MERSIN)       ,2.1,,
2016-12-18,36.762,34.548,2745869, MEZITLI (MERSIN)                 ,2.0,,
2016-12-18,38.6285,33.0163,2745870, YAPALI-CIHANBEYLI (KONYA)        ,1.4,,
2016-12-18,39.1338,29.0678,2745871, SOGUT-SIMAV (KUTAHYA)            ,2.8,,
2016-12-18,37.5828,35.922,2745872, ESKIMANTAS-KOZAN (ADANA)         ,1.9,,
2016-12-17,38.911,26.276,2745873, EGE DENIZI                       ,2.1,,
2016-12-17,37.0938,28.9913,2745874, KARACAM-KOYCEGIZ (MUGLA)         ,1.9,,
2016-12-17,35.6805,33.3652,2745875, AKDENIZ                          ,3.0,,
2016-12-17,39.0267,21.8287,2745876, YUNANISTAN                       ,3.6,,
2016-12-17,40.423,28.9337,2745877, GEMLIK KORFEZI (MARMARA DENIZI)  ,2.3,,
2016-12-17,40.8738,27.682,2745878, TEKIRDAG ACIKLARI (MARMARA DENIZI,1.9,,
2016-12-17,40.8502,27.7023,2745879, MARMARA DENIZI                   ,1.9,,
2016-12-17,39.2035,29.453,2745880, KIZIK-CAVDARHISAR (KUTAHYA)      ,1.7,,
2016-12-17,40.7632,28.7397,2745881, MARMARA DENIZI                   ,1.7,,
2016-12-17,37.2728,28.21,2745882, BAYIR-(MUGLA)                    ,2.1,,
2016-12-17,39.8698,32.9482,2745883, CANKAYA (ANKARA)                 ,1.4,,
2016-12-17,37.2415,28.1105,2745884, CUKUROZ-YATAGAN (MUGLA)          ,1.7,,
2016-12-17,37.2358,28.1992,2745885, PASAPINARI-(MUGLA)               ,2.2,,
2016-12-17,40.5405,27.0952,2745886, MARMARA DENIZI                   ,3.2,,
2016-12-17,40.4537,36.7657,2745887, GOKDERE-(TOKAT)                  ,2.1,,
2016-12-17,40.7422,28.6838,2745888, MARMARA DENIZI                   ,2.5,,
2016-12-17,37.2383,28.1137,2745889, CUKUROZ-YATAGAN (MUGLA)          ,2.0,,
2016-12-17,37.036,28.2992,2745890, AKYAKA-ULA (MUGLA)               ,1.9,,
2016-12-17,37.173,27.8462,2745891, IKIZKOY-MILAS (MUGLA)            ,2.0,,
2016-12-17,37.1458,28.685,2745892, TURGUT-ULA (MUGLA)               ,1.9,,
2016-12-17,37.1853,27.8622,2745893, IKIZKOY-MILAS (MUGLA)            ,1.8,,
2016-12-17,37.2078,27.806,2745894, CAMOVALI-MILAS (MUGLA)           ,1.7,,
2016-12-17,36.223,27.9955,2745895, RODOS ADASI (AKDENIZ)            ,3.6,,
2016-12-17,37.2912,28.3843,2745896, CAMLIBEL-KAVAKLIDERE (MUGLA)     ,1.8,,
2016-12-17,37.1033,28.6363,2745897, GOLCUK-ULA (MUGLA)               ,2.0,,
2016-12-17,37.1718,37.0967,2745898, YAMACOBA-SEHITKAMIL (GAZIANTEP)  ,2.0,,
2016-12-17,37.2242,28.2627,2745899, KAFACA-(MUGLA)                   ,1.8,,
2016-12-17,37.0957,28.843,2745900, OTMANLAR-KOYCEGIZ (MUGLA)        ,1.7,,
2016-12-17,39.64,39.6865,2745901, MAHMUTLU-(ERZINCAN)              ,2.7,,
2016-12-17,39.574,39.6498,2745902, GIRLEVIK-(ERZINCAN)              ,2.5,,
2016-12-17,39.6112,39.7108,2745903, ULUKOY-(ERZINCAN)                ,2.8,,
2016-12-17,39.6335,39.685,2745904, KUCUKKADAGAN-(ERZINCAN)          ,2.9,,
2016-12-17,38.7195,43.1593,2745905, AGARTI-(VAN)                     ,2.2,,
2016-12-17,39.1922,43.6168,2745906, GULLUCIMEN-MURADIYE (VAN)        ,2.5,,
2016-12-17,38.7332,43.1628,2745907, OZYURT-(VAN)                     ,2.0,,
2016-12-17,37.1225,28.6678,2745908, TURGUT-ULA (MUGLA)               ,2.0,,
2016-12-17,39.221,43.6273,2745909, SOGUKSU-DIYADIN (AGRI)           ,3.7,,
2016-12-17,36.5848,34.5967,2745910, MERSIN ACIKLARI-MERSIN (AKDENIZ) ,2.0,,
2016-12-17,35.0737,25.8005,2745911, GIRIT ADASI (AKDENIZ)            ,2.9,,
2016-12-17,41.487,28.5302,2745912, ORMANLI-CATALCA (ISTANBUL)       ,2.3,,
2016-12-17,39.3695,34.4103,2745913, UCKUYU-BOZTEPE (KIRSEHIR)        ,2.0,,
2016-12-17,40.5632,41.843,2745914, ERDOGMUS-OLTU (ERZURUM)          ,2.4,,
2016-12-17,37.1192,28.6563,2745915, KAVAKCALI-ULA (MUGLA)            ,2.1,,
2016-12-17,37.1415,28.6212,2745916, ARICILAR-ULA (MUGLA)             ,2.0,,
2016-12-17,39.631,39.6755,2745917, CADIRTEPE-UZUMLU (ERZINCAN)      ,2.4,,
2016-12-17,39.6397,39.7222,2745918, ULUKOY-(ERZINCAN)                ,2.1,,
2016-12-17,39.6148,39.7237,2745919, ULUKOY-(ERZINCAN)                ,2.0,,
2016-12-17,39.6427,39.7512,2745920, MERTEKLI-(ERZINCAN)              ,2.6,,
2016-12-17,39.631,39.7237,2745921, ULUKOY-(ERZINCAN)                ,2.0,,
2016-12-17,39.649,39.7488,2745922, MERTEKLI-(ERZINCAN)              ,2.3,,
2016-12-17,39.3888,26.078,2745923, BADEMLI ACIKLARI-CANAKKALE (EGE D,2.5,,
2016-12-16,41.0207,33.5235,2745924, CATAK-ILGAZ (CANKIRI)            ,2.5,,
2016-12-16,40.9957,33.4913,2745925, ALIC-ILGAZ (CANKIRI)             ,2.2,,
2016-12-16,37.4488,38.6287,2745926, GAZIBEY-(SANLIURFA)              ,2.1,,
2016-12-16,37.1115,35.7292,2745927, TATLIKUYU-CEYHAN (ADANA)         ,2.0,,
2016-12-16,37.1405,28.617,2745928, YAYLASOGUT-ULA (MUGLA)           ,2.1,,
2016-12-16,41.0805,22.9742,2745929, YUNANISTAN                       ,2.2,,
2016-12-16,39.1807,37.7425,2745930, BULAK-KANGAL (SIVAS)             ,2.0,,
2016-12-16,39.7418,32.5902,2745931, DEVECI-HAYMANA (ANKARA)          ,1.8,,
2016-12-16,37.2957,28.242,2745932, YENIKARAKUYU-YATAGAN (MUGLA)     ,2.1,,
2016-12-16,38.5042,39.3672,2745933, GUNEYKOY-SIVRICE (ELAZIG)        ,2.4,,
2016-12-16,39.7995,32.5237,2745934, SINCAN (ANKARA)                  ,1.9,,
2016-12-16,37.1263,27.7513,2745935, BALCILAR-MILAS (MUGLA)           ,1.9,,
2016-12-16,39.6868,29.323,2745936, ELMAAGACI-TAVSANLI (KUTAHYA)     ,2.1,,
2016-12-16,37.5043,37.0955,2745937, CIGLI-(KAHRAMANMARAS)            ,1.5,,
2016-12-16,37.0018,27.7983,2745938, COKERTME-MILAS (MUGLA)           ,1.7,,
2016-12-16,37.1033,29.0085,2745939, SANDALCIK-ACIPAYAM (DENIZLI)     ,2.0,,
2016-12-16,38.1608,27.335,2745940, TORBALI (IZMIR)                  ,2.2,,
2016-12-16,37.1323,27.8098,2745941, CIFTLIKKOY-MILAS (MUGLA)         ,1.9,,
2016-12-16,37.2918,27.8712,2745942, TUZABAT-MILAS (MUGLA)            ,2.0,,
2016-12-16,38.0507,37.7887,2745943, KADILI-DOGANSEHIR (MALATYA)      ,3.2,,
2016-12-16,41.8167,44.0888,2745944, GURCISTAN                        ,3.2,,
2016-12-16,36.1265,33.5265,2745945, YANISLI-GULNAR (MERSIN)          ,1.6,,
2016-12-16,37.0628,36.8212,2745946, KATRANCI-NURDAGI (GAZIANTEP)     ,1.9,,
2016-12-16,37.1067,37.1448,2745947, BESKUYU-SAHINBEY (GAZIANTEP)     ,1.9,,
2016-12-16,37.1137,28.695,2745948, KAVAKCALI-ULA (MUGLA)            ,1.5,,
2016-12-16,37.0878,34.8298,2745949, HACIHAMZALI-TARSUS (MERSIN)      ,1.8,,
2016-12-16,39.1437,29.0505,2745950, AHLATLICESME-SIMAV (KUTAHYA)     ,1.9,,
2016-12-16,37.5815,29.2317,2745951, SERINHISAR (DENIZLI)             ,1.7,,
2016-12-16,36.424,27.742,2745952, AKDENIZ                          ,2.6,,
2016-12-16,36.3835,27.741,2745953, AKDENIZ                          ,2.5,,
2016-12-16,37.1942,28.1353,2745954, CIRPI-(MUGLA)                    ,1.8,,
2016-12-16,37.9972,38.2702,2745955, DOGANLI-(ADIYAMAN)               ,3.5,,
2016-12-16,34.9162,26.4015,2745956, GIRIT ADASI ACIKLARI (AKDENIZ)   ,3.0,,
2016-12-16,35.7712,27.7112,2745957, AKDENIZ                          ,2.0,,
2016-12-16,36.0545,29.051,2745958, AKDENIZ                          ,1.9,,
2016-12-16,38.0675,29.0915,2745959, BELENARDIC-AKKOY (DENIZLI)       ,1.7,,
2016-12-16,38.0692,29.0823,2745960, BELENARDIC-AKKOY (DENIZLI)       ,2.4,,
2016-12-16,39.2968,39.6838,2745961, ALACIK-(TUNCELI)                 ,1.9,,
2016-12-16,39.365,39.5963,2745962, SARIGUL-PULUMUR (TUNCELI)        ,2.1,,
2016-12-16,38.9743,42.4273,2745963, CAYGELDI-BULANIK (MUS)           ,1.6,,
2016-12-16,39.0013,42.3368,2745964, SOGUTLU-BULANIK (MUS)            ,1.7,,
2016-12-16,37.0515,28.5808,2745965, BALCILAR-KOYCEGIZ (MUGLA)        ,1.6,,
2016-12-16,36.4625,28.8155,2745966, AKDENIZ                          ,1.8,,
2016-12-16,39.3865,39.5455,2745967, SARIGUL-PULUMUR (TUNCELI)        ,2.0,,
2016-12-16,39.993,41.2918,2745968, YAKUTIYE (ERZURUM)               ,1.9,,
2016-12-16,38.842,31.2815,2745969, BUYUKKARABAG-BOLVADIN (AFYONKARAH,1.8,,
2016-12-16,41.8562,31.5713,2745970, KOZLU ACIKLARI-ZONGULDAK (KARADEN,2.9,,
2016-12-16,40.5998,35.02,2745971, BUGET-(CORUM)                    ,2.0,,
2016-12-16,35.1802,28.3265,2745972, AKDENIZ                          ,3.0,,
2016-12-15,37.3937,35.8128,2745973, HACIMIRZALI-KOZAN (ADANA)        ,2.2,,
2016-12-15,37.427,35.8888,2745974, COBANPINARI-KOZAN (ADANA)        ,2.8,,
2016-12-15,37.1103,28.6668,2745975, KAVAKCALI-ULA (MUGLA)            ,1.6,,
2016-12-15,37.1003,28.6597,2745976, KAVAKCALI-ULA (MUGLA)            ,1.5,,
2016-12-15,37.0095,27.4073,2745977, BODRUM (MUGLA)                   ,2.1,,
2016-12-15,40.566,41.8622,2745978, ERDOGMUS-OLTU (ERZURUM)          ,2.4,,
2016-12-15,37.0998,28.6717,2745979, KAVAKCALI-ULA (MUGLA)            ,2.5,,
2016-12-15,36.8777,27.4097,2745980, GOKOVA KORFEZI (AKDENIZ)         ,1.9,,
2016-12-15,37.098,28.6537,2745981, KAVAKCALI-ULA (MUGLA)            ,1.8,,
2016-12-15,37.0578,28.6548,2745982, KAVAKCALI-ULA (MUGLA)            ,1.8,,
2016-12-15,37.0888,28.654,2745983, KAVAKCALI-ULA (MUGLA)            ,1.8,,
2016-12-15,36.9253,29.2147,2745984, ELMALI-CAMELI (DENIZLI)          ,1.9,,
2016-12-15,37.1597,27.3577,2745985, GOLTURKBUKU-BODRUM (MUGLA)       ,1.9,,
2016-12-15,34.946,32.7952,2745986, KIBRIS RUM KESIMI                ,2.8,,
2016-12-15,39.4782,31.582,2745987, BOGURTLEN-SIVRIHISAR (ESKISEHIR) ,1.8,,
2016-12-15,38.1182,32.6293,2745988, CANDIR-SELCUKLU (KONYA)          ,1.8,,
2016-12-15,39.7682,32.5697,2745989, DEVECI-HAYMANA (ANKARA)          ,1.8,,
2016-12-15,37.186,28.115,2745990, CIRPI-(MUGLA)                    ,1.7,,
2016-12-15,39.583,43.6682,2745991, YESILDURAK-DIYADIN (AGRI)        ,2.4,,
2016-12-15,34.8395,26.5478,2745992, GIRIT ADASI ACIKLARI (AKDENIZ)   ,3.5,,
2016-12-15,37.5405,35.6677,2745993, AKARCA-KOZAN (ADANA)             ,2.0,,
2016-12-15,37.1685,27.745,2745994, ALACAM-MILAS (MUGLA)             ,1.8,,
2016-12-15,37.082,29.0705,2745995, SANDALCIK-ACIPAYAM (DENIZLI)     ,1.7,,
2016-12-15,37.551,35.6657,2745996, KIZILLAR-KOZAN (ADANA)           ,1.6,,
2016-12-15,37.5125,35.665,2745997, KIZILDAM-ALADAG (ADANA)          ,1.8,,
2016-12-15,37.1722,27.8607,2745998, KARACAHISAR-MILAS (MUGLA)        ,2.2,,
2016-12-15,37.1248,27.854,2745999, PINARARASI-MILAS (MUGLA)         ,2.0,,
2016-12-15,37.179,27.8687,2746000, IKIZKOY-MILAS (MUGLA)            ,2.3,,
2016-12-15,37.4855,35.6115,2746001, ZERDALI-KOZAN (ADANA)            ,2.3,,
2016-12-15,35.333,26.9842,2746002, GIRIT ADASI (AKDENIZ)            ,2.4,,
2016-12-15,37.1782,28.18,2746003, CIFTLIKKOY-(MUGLA)               ,1.9,,
2016-12-15,37.1147,28.1155,2746004, SARNICKOY-(MUGLA)                ,1.6,,
2016-12-15,38.7522,27.9092,2746005, AKSELENDI-AKHISAR (MANISA)       ,2.0,,
2016-12-15,36.2788,33.4685,2746006, DELIKKAYA-GULNAR (MERSIN)        ,1.5,,
2016-12-15,35.8345,26.9877,2746007, AKDENIZ                          ,2.6,,
2016-12-15,39.6717,30.647,2746008, KIRAVDAN-ODUNPAZARI (ESKISEHIR)  ,1.9,,
2016-12-15,37.0467,28.5505,2746009, KARABOGURTLEN-ULA (MUGLA)        ,1.3,,
2016-12-15,37.6487,35.742,2746010, YANALERIK-KOZAN (ADANA)          ,2.0,,
2016-12-15,37.5328,35.6638,2746011, AKARCA-KOZAN (ADANA)             ,2.4,,
2016-12-15,36.9912,27.835,2746012, GOKOVA KORFEZI (AKDENIZ)         ,1.7,,
2016-12-15,40.1557,31.7567,2746013, CANTIRLI-BEYPAZARI (ANKARA)      ,2.1,,
2016-12-15,39.284,26.003,2746014, BADEMLI ACIKLARI-CANAKKALE (EGE D,2.4,,
2016-12-15,39.4592,33.0545,2746015, AFSAR-BALA (ANKARA)              ,1.8,,
2016-12-14,37.6853,23.3738,2746016, YUNANISTAN                       ,2.5,,
2016-12-14,40.0198,42.3425,2746017, KEMERLI-HORASAN (ERZURUM)        ,2.9,,
2016-12-14,39.0987,29.1463,2746018, YAGMURLAR-SIMAV (KUTAHYA)        ,1.8,,
2016-12-14,36.7383,22.424,2746019, YUNANISTAN                       ,2.5,,
2016-12-14,38.4922,26.6798,2746020, IZMIR KORFEZI (EGE DENIZI)       ,2.1,,
2016-12-14,34.6582,29.9458,2746021, AKDENIZ                          ,3.2,,
2016-12-14,36.3485,24.1755,2746022, YUNANISTAN                       ,2.7,,
2016-12-14,39.0765,29.1318,2746023, TASLIK-SIMAV (KUTAHYA)           ,1.7,,
2016-12-14,38.3695,27.059,2746024, TIRAZLI-KARABAGLAR (IZMIR)       ,2.2,,
2016-12-14,39.4372,33.0932,2746025, AFSAR-BALA (ANKARA)              ,1.9,,
2016-12-14,39.0988,29.0927,2746026, SOGUT-SIMAV (KUTAHYA)            ,2.0,,
2016-12-14,37.3712,27.9312,2746027, KATRANCI-YATAGAN (MUGLA)         ,2.0,,
2016-12-14,36.728,36.4265,2746028, ZEYTINOBA-HASSA (HATAY)          ,2.4,,
2016-12-14,38.7293,43.8907,2746029, BOGAZKESEN-OZALP (VAN)           ,2.4,,
2016-12-14,40.0993,31.5867,2746030, DAVUTOGLAN-NALLIHAN (ANKARA)     ,1.9,,
2016-12-14,41.6807,27.5583,2746031, AKOREN-PINARHISAR (KIRKLARELI)   ,1.9,,
2016-12-14,40.4042,27.3883,2746032, KARABIGA-BIGA (CANAKKALE)        ,2.1,,
2016-12-14,40.4268,42.2858,2746033, ESENYURT-SENKAYA (ERZURUM)       ,2.7,,
2016-12-14,39.9955,42.3638,2746034, KEMERLI-HORASAN (ERZURUM)        ,2.6,,
2016-12-14,37.2203,28.1085,2746035, CUKUROZ-YATAGAN (MUGLA)          ,2.2,,
2016-12-14,37.1277,27.872,2746036, BAGDAMLARI-MILAS (MUGLA)         ,1.7,,
2016-12-14,37.1725,27.8505,2746037, IKIZKOY-MILAS (MUGLA)            ,2.1,,
2016-12-14,40.2697,29.3718,2746038, GOLCUK-KESTEL (BURSA)            ,2.0,,
2016-12-14,40.1788,25.2098,2746039, EGE DENIZI                       ,2.5,,
2016-12-14,38.6848,26.7095,2746040, IZMIR KORFEZI (EGE DENIZI)       ,1.9,,
2016-12-14,38.2918,39.3402,2746041, KOCOREN-CUNGUS (DIYARBAKIR)      ,2.1,,
2016-12-14,37.0548,28.2143,2746042, KIRAN-(MUGLA)                    ,2.5,,
2016-12-14,38.0513,29.9262,2746043, MADENLER-EVCILER (AFYONKARAHISAR),2.1,,
2016-12-14,37.2097,28.345,2746044, MUGLA                            ,2.0,,
2016-12-14,40.1552,42.6223,2746045, KARAKURT-SARIKAMIS (KARS)        ,2.3,,
2016-12-14,37.5127,38.5615,2746046, KOVANOLUK-SAMSAT (ADIYAMAN)      ,3.1,,
2016-12-13,39.23,28.7135,2746047, SARIKAYA-SIMAV (KUTAHYA)         ,2.8,,
2016-12-13,37.4115,38.7643,2746048, ILHAN-(SANLIURFA)                ,2.2,,
2016-12-13,36.9835,27.0082,2746049, ONIKI ADALAR (AKDENIZ)           ,2.9,,
2016-12-13,37.0887,28.6642,2746050, KAVAKCALI-ULA (MUGLA)            ,2.9,,
2016-12-13,40.1115,31.721,2746051, CAYIRHAN-NALLIHAN (ANKARA)       ,2.0,,
2016-12-13,37.4142,27.7875,2746052, SARIKAYA-MILAS (MUGLA)           ,2.4,,
2016-12-13,37.1055,28.669,2746053, KAVAKCALI-ULA (MUGLA)            ,1.6,,
2016-12-13,39.3253,33.36,2746054, KUCUKCAMILI-BALA (ANKARA)        ,1.8,,
2016-12-13,40.3108,36.5895,2746055, HASANBABA-(TOKAT)                ,1.9,,
2016-12-13,37.2075,31.7015,2746056, GUMUSDAMLA-AKSEKI (ANTALYA)      ,2.2,,
2016-12-13,37.0522,34.4872,2746057, GUZELYAYLA-TOROSLAR (MERSIN)     ,2.0,,
2016-12-13,40.1523,30.8838,2746058, NEBIOGLU-NALLIHAN (ANKARA)       ,2.2,,
2016-12-13,40.2982,30.7928,2746059, KAYALIDERE-GOYNUK (BOLU)         ,2.0,,
2016-12-13,35.2183,33.637,2746060, KIBRIS-DEGIRMENLIK               ,2.0,,
2016-12-13,38.6055,43.6642,2746061, AKTAS-(VAN)                      ,2.1,,
2016-12-13,36.5197,34.8493,2746062, TUZLA ACIKLARI-ADANA (AKDENIZ)   ,2.2,,
2016-12-13,39.1682,28.3408,2746063, KUCUKDAGDERE-SINDIRGI (BALIKESIR),2.8,,
2016-12-13,38.3302,42.809,2746064, YOLDONDU-GEVAS (VAN)             ,1.9,,
2016-12-13,38.4347,43.8487,2746065, UMUT-GURPINAR (VAN)              ,3.2,,
2016-12-13,40.355,23.9073,2746066, YUNANISTAN                       ,2.8,,
2016-12-13,39.35,40.3003,2746067, KIGI (BINGOL)                    ,1.9,,
2016-12-13,39.5582,37.638,2746068, KANLICAYIR-ZARA (SIVAS)          ,1.7,,
2016-12-13,42.4832,43.2102,2746069, GURCISTAN                        ,3.3,,
2016-12-13,38.3828,43.8823,2746070, CEVIZALAN-GURPINAR (VAN)         ,2.2,,
2016-12-13,38.7607,39.7447,2746071, KUSCUKOY-KOVANCILAR (ELAZIG)     ,1.9,,
2016-12-13,38.4385,43.841,2746072, UMUT-GURPINAR (VAN)              ,3.1,,
2016-12-13,40.9612,22.7042,2746073, YUNANISTAN                       ,2.2,,
2016-12-12,38.659,43.157,2746074, MOLLAKASIM-(VAN)                 ,1.5,,
2016-12-12,39.9125,23.7863,2746075, YUNANISTAN                       ,2.8,,
2016-12-12,36.8233,26.9948,2746076, KOS ADASI (AKDENIZ)              ,2.7,,
2016-12-12,38.9875,35.8273,2746077, BUYUKTUZHISAR-BUNYAN (KAYSERI)   ,2.0,,
2016-12-12,36.8838,23.4312,2746078, YUNANISTAN                       ,3.2,,
2016-12-12,39.2537,33.3535,2746079, KUCUKDAMLACIK-SEREFLIKOCHISAR (AN,1.5,,
2016-12-12,39.0147,32.814,2746080, CELEP-KULU (KONYA)               ,1.8,,
2016-12-12,41.0593,41.676,2746081, CEVIZLIK-YUSUFELI (ARTVIN)       ,2.2,,
2016-12-12,41.9797,26.8028,2746082, VAYSAL-LALAPASA (EDIRNE)         ,2.3,,
2016-12-12,41.5157,25.9415,2746083, BULGARISTAN                      ,2.1,,
2016-12-12,40.2828,30.2955,2746084, GOLPAZARI (BILECIK)              ,2.2,,
2016-12-12,37.1565,27.8692,2746085, IKIZKOY-MILAS (MUGLA)            ,1.9,,
2016-12-12,36.1465,30.4168,2746086, MAVIKENT ACIKLARI-ANTALYA (AKDENI,2.2,,
2016-12-12,41.319,28.4647,2746087, ORENCIK-CATALCA (ISTANBUL)       ,1.7,,
2016-12-12,40.8975,39.23,2746088, KIRGERIS-KURTUN (GUMUSHANE)      ,2.2,,
2016-12-12,37.1937,31.3283,2746089, DUZAGAC-MANAVGAT (ANTALYA)       ,2.3,,
2016-12-12,38.417,26.2123,2746090, CESME ACIKLARI-IZMIR (EGE DENIZI),2.3,,
2016-12-12,40.8472,28.0542,2746091, MARMARA DENIZI                   ,2.6,,
2016-12-12,39.6175,29.3945,2746092, DERBENT-TAVSANLI (KUTAHYA)       ,2.0,,
2016-12-12,40.1503,31.6782,2746093, ULUKOY-NALLIHAN (ANKARA)         ,2.0,,
2016-12-12,37.1812,28.1578,2746094, CIFTLIKKOY-(MUGLA)               ,2.0,,
2016-12-12,40.9173,38.7117,2746095, HACIKOY-ESPIYE (GIRESUN)         ,1.9,,
2016-12-12,41.1392,39.252,2746096, KIRAZLIK-VAKFIKEBIR (TRABZON)    ,2.3,,
2016-12-12,37.3228,36.965,2746097, KADIOGLUCIFTLIGI-TURKOGLU (KAHRAM,1.8,,
2016-12-12,38.0733,40.1078,2746098, YAYTAS-YENISEHIR (DIYARBAKIR)    ,1.5,,
2016-12-12,39.1193,31.4947,2746099, SIGIRCIK-SIVRIHISAR (ESKISEHIR)  ,2.0,,
2016-12-12,40.7835,28.052,2746100, MARMARA DENIZI                   ,2.0,,
2016-12-12,40.8205,28.0757,2746101, MARMARA DENIZI                   ,2.0,,
2016-12-12,36.9912,36.061,2746102, YUKARIBURNAZ-ERZIN (HATAY)       ,1.6,,
2016-12-12,39.3282,40.1375,2746103, ALTINHUSEYIN-PULUMUR (TUNCELI)   ,1.5,,
2016-12-12,40.2308,33.4432,2746104, DAGDEMIR-KALECIK (ANKARA)        ,1.7,,
2016-12-12,40.8158,28.045,2746105, MARMARA DENIZI                   ,2.0,,
2016-12-12,37.613,36.1263,2746106, CICEKLIDERE-SUMBAS (OSMANIYE)    ,1.9,,
2016-12-12,38.8292,27.7988,2746107, BEYOBA-AKHISAR (MANISA)          ,1.6,,
2016-12-12,39.0543,29.6382,2746108, CEBRAIL-GEDIZ (KUTAHYA)          ,2.7,,
2016-12-11,37.7143,30.7995,2746109, YUKARIGOKDERE-EGIRDIR (ISPARTA)  ,1.9,,
2016-12-11,37.9945,37.8933,2746110, HUDUTKOY-DOGANSEHIR (MALATYA)    ,2.1,,
2016-12-11,38.0908,28.8328,2746111, DIMBAZLAR-BULDAN (DENIZLI)       ,2.6,,
2016-12-11,37.7853,30.7848,2746112, COBANISA-(ISPARTA)               ,2.4,,
2016-12-11,38.697,33.6908,2746113, CALOREN-SEREFLIKOCHISAR (ANKARA) ,1.7,,
2016-12-11,36.4402,27.634,2746114, ONIKI ADALAR (AKDENIZ)           ,1.9,,
2016-12-11,36.4662,27.6115,2746115, AKDENIZ                          ,1.7,,
2016-12-11,40.8998,37.4337,2746116, AKKAYA-CATALPINAR (ORDU)         ,2.2,,
2016-12-11,40.542,30.7682,2746117, YORUKYERI-AKYAZI (SAKARYA)       ,1.5,,
2016-12-11,36.5738,32.1005,2746118, KIZILCASEHIR-ALANYA (ANTALYA)    ,1.7,,
2016-12-11,37.5548,35.4073,2746119, ALADAG (ADANA)                   ,1.2,,
2016-12-11,40.1007,27.6878,2746120, KORUDEGIRMEN-GONEN (BALIKESIR)   ,1.7,,
2016-12-11,40.2785,25.7933,2746121, KALEKOY-GOKCEADA (CANAKKALE)     ,1.6,,
2016-12-11,37.2023,29.0363,2746122, ALPA-TAVAS (DENIZLI)             ,1.5,,
2016-12-11,40.5537,29.9832,2746123, KEMALIYE-PAMUKOVA (SAKARYA)      ,2.0,,
2016-12-11,36.9317,28.262,2746124, CAMLI-MARMARIS (MUGLA)           ,1.4,,
2016-12-11,37.2038,27.8013,2746125, CAMOVALI-MILAS (MUGLA)           ,1.6,,
2016-12-11,37.2373,27.8717,2746126, KALINAGIL-MILAS (MUGLA)          ,1.5,,
2016-12-11,37.1948,27.8603,2746127, IKIZKOY-MILAS (MUGLA)            ,2.1,,
2016-12-11,37.2742,31.9838,2746128, CATMAKAYA-SEYDISEHIR (KONYA)     ,1.9,,
2016-12-11,38.9405,37.1172,2746129, KOYUNLU-GURUN (SIVAS)            ,1.8,,
2016-12-11,37.3845,28.144,2746130, NEBIKOY-YATAGAN (MUGLA)          ,1.9,,
2016-12-11,40.5038,29.1177,2746131, HAYDARIYE-GEMLIK (BURSA)         ,1.6,,
2016-12-11,37.5518,36.215,2746132, YOGUNOLUK-KADIRLI (OSMANIYE)     ,1.8,,
2016-12-11,39.881,39.0395,2746133, YENIKOY-REFAHIYE (ERZINCAN)      ,2.7,,
2016-12-11,40.5322,29.2018,2746134, KURTKOY-(YALOVA)                 ,2.0,,
2016-12-11,37.2537,28.27,2746135, SALIHPASALAR-(MUGLA)             ,1.7,,
2016-12-11,37.0875,30.5528,2746136, YAGCA-DOSEMEALTI (ANTALYA)       ,1.6,,
2016-12-11,39.1512,28.2873,2746137, YUREGIL-SINDIRGI (BALIKESIR)     ,2.7,,
2016-12-11,40.1043,31.5448,2746138, DAVUTOGLAN-NALLIHAN (ANKARA)     ,1.8,,
2016-12-11,37.012,28.2625,2746139, GOKOVA KORFEZI (AKDENIZ)         ,1.6,,
2016-12-11,36.6418,35.7548,2746140, ISKENDERUN KORFEZI (AKDENIZ)     ,1.8,,
2016-12-11,40.8547,27.9215,2746141, MARMARA EREGLISI ACIKLARI-TEKIRDA,1.9,,
2016-12-11,38.6422,28.0117,2746142, YENIKOY-GOLMARMARA (MANISA)      ,1.6,,
2016-12-11,38.6038,27.9813,2746143, TEKELIOGLU-SALIHLI (MANISA)      ,1.9,,
2016-12-11,40.85,22.6547,2746144, YUNANISTAN                       ,2.6,,
2016-12-11,35.6502,36.6017,2746145, SURIYE                           ,2.0,,
2016-12-11,38.3313,38.8117,2746146, UZUNHUSEYIN-KALE (MALATYA)       ,2.4,,
2016-12-11,40.1253,40.9558,2746147, SORKUNLU-AZIZIYE (ERZURUM)       ,2.0,,
2016-12-11,37.0662,28.616,2746148, BALCILAR-KOYCEGIZ (MUGLA)        ,1.6,,
2016-12-11,39.1503,28.2827,2746149, ISIKLAR-SINDIRGI (BALIKESIR)     ,2.0,,
2016-12-11,39.0735,26.6382,2746150, DIKILI ACIKLARI-IZMIR (EGE DENIZI,1.5,,
2016-12-11,39.8412,41.1538,2746151, DEREBOGAZ-PALANDOKEN (ERZURUM)   ,2.8,,
2016-12-11,38.9287,41.4653,2746152, YESILOVA-(MUS)                   ,1.6,,
2016-12-11,39.7262,37.7827,2746153, AKDEDE-ZARA (SIVAS)              ,2.2,,
2016-12-11,39.761,37.7435,2746154, YARIMKAYA-ZARA (SIVAS)           ,2.4,,
2016-12-11,38.9755,27.9435,2746155, KARAKOY-AKHISAR (MANISA)         ,1.9,,
2016-12-11,36.7127,35.9098,2746156, ISKENDERUN KORFEZI (AKDENIZ)     ,1.8,,
2016-12-11,38.7988,27.935,2746157, KARAYAGCI-AKHISAR (MANISA)       ,2.5,,
2016-12-11,38.0008,38.4388,2746158, INLICE-SINCIK (ADIYAMAN)         ,2.0,,
2016-12-10,38.89,26.0642,2746159, EGE DENIZI                       ,1.7,,
2016-12-10,37.3745,27.0125,2746160, EGE DENIZI                       ,2.0,,
2016-12-10,38.0525,36.6577,2746161, AHMETCIK-GOKSUN (KAHRAMANMARAS)  ,2.2,,
2016-12-10,39.0545,33.4217,2746162, HACIBEKTASLI-SEREFLIKOCHISAR (ANK,1.2,,
2016-12-10,38.7778,27.8368,2746163, KUMKUYUCAK-SARUHANLI (MANISA)    ,2.1,,
2016-12-10,40.3462,42.2208,2746164, PARMAKDERE-SARIKAMIS (KARS)      ,2.2,,
2016-12-10,37.9917,34.4902,2746165, BALCI-BOR (NIGDE)                ,2.1,,
2016-12-10,37.2733,28.2092,2746166, BAYIR-(MUGLA)                    ,1.7,,
2016-12-10,37.1648,37.1682,2746167, CERITYENIYAPAN-SEHITKAMIL (GAZIAN,1.7,,
2016-12-10,37.2173,28.1692,2746168, PASAPINARI-(MUGLA)               ,1.7,,
2016-12-10,36.8348,28.8557,2746169, KIZILKAYA-DALAMAN (MUGLA)        ,1.7,,
2016-12-10,36.993,28.2705,2746170, CAMLI-MARMARIS (MUGLA)           ,1.7,,
2016-12-10,37.2567,27.8735,2746171, ASLANYAKA-MILAS (MUGLA)          ,1.8,,
2016-12-10,39.1663,27.5582,2746172, ADIL-SOMA (MANISA)               ,2.0,,
2016-12-10,36.9862,36.0642,2746173, TURUNCLU-ERZIN (HATAY)           ,1.8,,
2016-12-10,40.4822,29.2885,2746174, ORHANGAZI (BURSA)                ,1.8,,
2016-12-10,37.2437,28.2302,2746175, CUKUROZ-YATAGAN (MUGLA)          ,1.8,,
2016-12-10,38.1098,32.6053,2746176, CANDIR-SELCUKLU (KONYA)          ,1.4,,
2016-12-10,39.1095,27.3348,2746177, DAGISTAN-BERGAMA (IZMIR)         ,1.9,,
2016-12-10,37.767,32.6377,2746178, ABDITOLU-CUMRA (KONYA)           ,1.4,,
2016-12-10,40.1592,25.117,2746179, EGE DENIZI                       ,1.9,,
2016-12-10,39.2137,29.3307,2746180, SEYHCAKIR-HISARCIK (KUTAHYA)     ,1.7,,
2016-12-10,37.2377,28.1685,2746181, BAHCEYAKA-YATAGAN (MUGLA)        ,2.2,,
2016-12-10,37.5632,37.3795,2746182, PAYAMLIBAG-PAZARCIK (KAHRAMANMARA,1.6,,
2016-12-10,40.3427,30.8663,2746183, SUSUZ-GOYNUK (BOLU)              ,2.1,,
2016-12-10,37.1473,27.8458,2746184, BAGDAMLARI-MILAS (MUGLA)         ,2.1,,
2016-12-10,37.6327,29.28,2746185, SARIABAT-TAVAS (DENIZLI)         ,1.7,,
2016-12-10,39.4505,29.9142,2746186, DEMIRCIOREN-(KUTAHYA)            ,2.0,,
2016-12-10,39.6168,29.4632,2746187, TUNCBILEK-TAVSANLI (KUTAHYA)     ,2.0,,
2016-12-10,38.3628,27.485,2746188, CUMALI-KEMALPASA (IZMIR)         ,1.7,,
2016-12-10,37.6337,29.3117,2746189, AYAZ-SERINHISAR (DENIZLI)        ,1.6,,
2016-12-10,39.0965,27.594,2746190, ADIL-SOMA (MANISA)               ,1.9,,
2016-12-10,37.2067,28.327,2746191, AKKAYA-(MUGLA)                   ,1.5,,
2016-12-10,38.0262,38.9717,2746192, ASAGIDAGLICA-GERGER (ADIYAMAN)   ,2.1,,
2016-12-10,38.8202,43.5222,2746193, BAGDASAN-(VAN)                   ,2.5,,
2016-12-10,39.4318,26.357,2746194, EDREMIT KORFEZI (EGE DENIZI)     ,2.6,,
2016-12-10,37.0522,35.6977,2746195, BUYUKBURHANIYE-CEYHAN (ADANA)    ,2.4,,
2016-12-10,36.092,27.3748,2746196, AKDENIZ                          ,2.3,,
2016-12-09,39.0938,29.0952,2746197, KALKAN-SIMAV (KUTAHYA)           ,1.6,,
2016-12-09,35.6982,27.0797,2746198, AKDENIZ                          ,2.4,,
2016-12-09,35.91,30.9152,2746199, AKDENIZ                          ,2.1,,
2016-12-09,36.8418,29.0583,2746200, DARIYERI-DALAMAN (MUGLA)         ,2.6,,
2016-12-09,37.6907,36.2032,2746201, DEGIRMENDERE-KADIRLI (OSMANIYE)  ,1.5,,
2016-12-09,36.7477,31.1415,2746202, BELEK-SERIK (ANTALYA)            ,1.8,,
2016-12-09,38.7268,25.5875,2746203, EGE DENIZI                       ,2.4,,
2016-12-09,37.6765,29.6578,2746204, HAYRIYE-CARDAK (DENIZLI)         ,2.3,,
2016-12-09,37.757,37.8542,2746205, ASAGICOPLU-BESNI (ADIYAMAN)      ,1.8,,
2016-12-09,37.2262,28.196,2746206, PASAPINARI-(MUGLA)               ,2.1,,
2016-12-09,40.6193,32.8468,2746207, EGERLIBASKOY-KIZILCAHAMAM (ANKARA,1.9,,
2016-12-09,39.6388,29.5647,2746208, MUHACIRLER-DOMANIC (KUTAHYA)     ,2.1,,
2016-12-09,37.4938,35.289,2746209, EBRISIM-ALADAG (ADANA)           ,1.6,,
2016-12-09,39.0905,29.1023,2746210, YESILYAYLA-SIMAV (KUTAHYA)       ,2.4,,
2016-12-09,37.1922,28.0963,2746211, CIRPI-(MUGLA)                    ,1.6,,
2016-12-09,37.6918,29.6735,2746212, BEYLERLI-CARDAK (DENIZLI)        ,2.5,,
2016-12-09,38.3092,34.389,2746213, SIVRIHISAR-GUZELYURT (AKSARAY)   ,1.7,,
2016-12-09,40.6263,39.879,2746214, AKOCAK-(GUMUSHANE)               ,1.9,,
2016-12-09,39.3442,32.1907,2746215, KARABENLI-POLATLI (ANKARA)       ,2.0,,
2016-12-09,38.651,27.8108,2746216, DERICI-AHMETLI (MANISA)          ,2.4,,
2016-12-09,41.1767,28.6727,2746217, HACIMASLI-ARNAVUTKOY (ISTANBUL)  ,2.0,,
2016-12-09,41.0903,28.6962,2746218, ESENYURT (ISTANBUL)              ,1.6,,
2016-12-09,41.3312,28.7968,2746219, AKPINAR-EYUP (ISTANBUL)          ,1.6,,
2016-12-09,36.0385,28.127,2746220, AKDENIZ                          ,2.2,,
2016-12-09,36.5887,27.545,2746221, MESUDIYE-DATCA (MUGLA)           ,2.0,,
2016-12-09,36.4843,28.6322,2746222, AKDENIZ                          ,2.4,,
2016-12-09,35.0142,28.972,2746223, AKDENIZ                          ,3.2,,
2016-12-09,37.2082,28.188,2746224, CIFTLIKKOY-(MUGLA)               ,2.0,,
2016-12-09,39.7483,25.6913,2746225, EGE DENIZI                       ,3.1,,
2016-12-09,37.4658,26.6853,2746226, ONIKI ADALAR (AKDENIZ)           ,2.5,,
2016-12-09,40.717,32.926,2746227, HACILAR-CERKES (CANKIRI)         ,2.2,,
2016-12-09,39.4733,32.3767,2746228, AHIRLIKUYU-HAYMANA (ANKARA)      ,1.7,,
2016-12-09,38.3322,42.8347,2746229, DEGIRMITAS-GEVAS (VAN)           ,1.6,,
2016-12-09,39.0643,28.6683,2746230, AKDERE-DEMIRCI (MANISA)          ,1.4,,
2016-12-09,39.8468,40.3003,2746231, KUCUKAGA-TERCAN (ERZINCAN)       ,1.7,,
2016-12-09,39.8492,40.305,2746232, KUCUKAGA-TERCAN (ERZINCAN)       ,2.1,,
2016-12-09,36.8733,27.4563,2746233, GOKOVA KORFEZI (AKDENIZ)         ,2.0,,
2016-12-09,38.0983,29.0867,2746234, CINDERE-GUNEY (DENIZLI)          ,2.1,,
2016-12-09,39.1798,40.9762,2746235, KIRACTEPE-KARLIOVA (BINGOL)      ,1.8,,
2016-12-09,37.3142,42.8392,2746236, TASDELEN-ULUDERE (SIRNAK)        ,2.3,,
2016-12-09,39.0742,29.1643,2746237, YAGMURLAR-SIMAV (KUTAHYA)        ,1.4,,
2016-12-09,37.3995,37.0667,2746238, HALKACAYIRI-(KAHRAMANMARAS)      ,1.6,,
2016-12-09,39.0987,27.954,2746239, ASAGIDOLMA-AKHISAR (MANISA)      ,1.8,,
2016-12-09,40.4248,28.4358,2746240, BAYRAMDERE-KARACABEY (BURSA)     ,2.4,,
2016-12-08,37.0337,28.2708,2746241, GOKOVA KORFEZI (AKDENIZ)         ,2.1,,
2016-12-08,38.4355,39.1917,2746242, YEDIPINAR-SIVRICE (ELAZIG)       ,1.8,,
2016-12-08,35.3675,27.9518,2746243, AKDENIZ                          ,2.8,,
2016-12-08,39.7505,25.706,2746244, EGE DENIZI                       ,2.3,,
2016-12-08,41.944,26.8603,2746245, VAYSAL-LALAPASA (EDIRNE)         ,2.0,,
2016-12-08,36.2687,28.9765,2746246, AKDENIZ                          ,2.9,,
2016-12-08,39.975,39.8665,2746247, AVCICAYIRI-OTLUKBELI (ERZINCAN)  ,2.1,,
2016-12-08,39.3178,40.2372,2746248, SABIRTASI-KIGI (BINGOL)          ,1.9,,
2016-12-08,39.3003,40.2282,2746249, SABIRTASI-KIGI (BINGOL)          ,1.7,,
2016-12-08,37.1465,28.2533,2746250, ALGI-(MUGLA)                     ,2.1,,
2016-12-08,37.0395,28.2123,2746251, GOKOVA KORFEZI (AKDENIZ)         ,2.4,,
2016-12-08,37.0395,30.602,2746252, DOSEMEALTI (ANTALYA)             ,2.8,,
2016-12-08,36.4778,38.6555,2746253, SURIYE                           ,3.0,,
2016-12-08,38.6657,43.2083,2746254, MOLLAKASIM-(VAN)                 ,2.2,,
2016-12-08,37.7313,27.6907,2746255, BIRCI-KOCARLI (AYDIN)            ,2.0,,
2016-12-07,38.7305,43.2052,2746256, ATMACA-(VAN)                     ,2.0,,
2016-12-07,38.8305,28.0447,2746257, CAGLAYAN-GORDES (MANISA)         ,2.3,,
2016-12-07,35.4567,26.1503,2746258, GIRIT ADASI (AKDENIZ)            ,2.6,,
2016-12-07,39.772,25.6843,2746259, EGE DENIZI                       ,2.3,,
2016-12-07,39.6117,28.6705,2746260, TEPEKOY-DURSUNBEY (BALIKESIR)    ,1.9,,
2016-12-07,37.8648,43.6047,2746261, KILICTUTAN-GURPINAR (VAN)        ,2.8,,
2016-12-07,36.4727,28.6222,2746262, AKDENIZ                          ,1.9,,
2016-12-07,39.166,41.1765,2746263, GUZELKENT-VARTO (MUS)            ,2.4,,
2016-12-07,37.1315,36.8767,2746264, ATMALI-NURDAGI (GAZIANTEP)       ,2.0,,
2016-12-07,39.7233,38.0463,2746265, EVRENCIK-ZARA (SIVAS)            ,2.3,,
2016-12-07,36.5083,34.2087,2746266, KUMKUYU-ERDEMLI (MERSIN)         ,2.1,,
2016-12-07,39.9513,32.3807,2746267, AYAS (ANKARA)                    ,1.9,,
2016-12-07,40.4368,28.4275,2746268, BAYRAMDERE-KARACABEY (BURSA)     ,2.2,,
2016-12-07,34.1518,32.3683,2746269, AKDENIZ                          ,2.7,,
2016-12-07,37.066,34.8872,2746270, KIZILCUKUR-TARSUS (MERSIN)       ,1.5,,
2016-12-07,37.2808,37.536,2746271, KUCUKKARAKUYU-YAVUZELI (GAZIANTEP,2.1,,
2016-12-07,37.5402,26.8242,2746272, EGE DENIZI                       ,2.3,,
2016-12-07,36.8462,27.3077,2746273, KOS ADASI (AKDENIZ)              ,2.0,,
2016-12-07,37.6913,38.6788,2746274, SUSUZ-KAHTA (ADIYAMAN)           ,2.2,,
2016-12-07,34.327,32.3907,2746275, AKDENIZ                          ,3.1,,
2016-12-07,40.4742,36.7408,2746276, EFEKOY-(TOKAT)                   ,2.2,,
2016-12-07,39.1375,29.1467,2746277, INLICE-SIMAV (KUTAHYA)           ,1.9,,
2016-12-07,38.9947,42.6892,2746278, KARAHASAN-MALAZGIRT (MUS)        ,2.0,,
2016-12-07,39.4753,33.2043,2746279, CATALOREN-BALA (ANKARA)          ,1.8,,
2016-12-07,38.1462,32.6387,2746280, GUVENC-SELCUKLU (KONYA)          ,1.6,,
2016-12-07,39.4037,29.1253,2746281, ORENCIK-SIMAV (KUTAHYA)          ,2.1,,
2016-12-07,41.247,28.7095,2746282, TAYAKADIN-ARNAVUTKOY (ISTANBUL)  ,2.1,,
2016-12-07,39.6337,29.4685,2746283, TUNCBILEK-TAVSANLI (KUTAHYA)     ,1.9,,
2016-12-07,40.1168,36.0902,2746284, YAYLAKENT-ZILE (TOKAT)           ,2.3,,
2016-12-07,38.7052,35.669,2746285, KAMBER-TALAS (KAYSERI)           ,1.7,,
2016-12-07,35.212,28.0438,2746286, AKDENIZ                          ,2.3,,
2016-12-07,37.193,27.8753,2746287, IKIZKOY-MILAS (MUGLA)            ,1.4,,
2016-12-07,37.204,27.858,2746288, CAMKOY-MILAS (MUGLA)             ,1.6,,
2016-12-07,40.2862,30.632,2746289, KILCILER-GOYNUK (BOLU)           ,1.9,,
2016-12-07,40.1955,30.7477,2746290, ASAGIKINIK-GOYNUK (BOLU)         ,2.1,,
2016-12-07,37.4337,36.829,2746291, YENIPINAR-TURKOGLU (KAHRAMANMARAS,1.5,,
2016-12-07,40.247,33.2933,2746292, YESILOZ-KALECIK (ANKARA)         ,2.9,,
2016-12-07,38.7338,43.1693,2746293, VAN GOLU                         ,2.1,,
2016-12-07,40.2383,29.7905,2746294, CAMONU-YENISEHIR (BURSA)         ,1.5,,
2016-12-07,40.8528,28.2257,2746295, SILIVRI ACIKLARI-ISTANBUL (MARMAR,2.6,,
2016-12-07,36.0145,31.9718,2746296, AKDENIZ                          ,2.1,,
2016-12-07,38.3315,26.9,2746297, KUCUKKAYA-GUZELBAHCE (IZMIR)     ,2.0,,
2016-12-07,38.989,27.8922,2746298, DINGILLER-AKHISAR (MANISA)       ,2.1,,
2016-12-07,37.216,28.1855,2746299, CIRPI-(MUGLA)                    ,2.0,,
2016-12-07,36.9117,28.7843,2746300, BEYOBASI-KOYCEGIZ (MUGLA)        ,1.9,,
2016-12-07,40.272,31.2238,2746301, AYDOGMUS-NALLIHAN (ANKARA)       ,1.6,,
2016-12-07,40.0275,43.1088,2746302, YOLKORUR-KAGIZMAN (KARS)         ,2.0,,
2016-12-07,40.6235,32.7227,2746303, SALIN-KIZILCAHAMAM (ANKARA)      ,1.8,,
2016-12-07,38.6388,43.7103,2746304, DEGIRMENARKI-(VAN)               ,2.0,,
2016-12-07,35.0043,24.4933,2746305, GIRIT ADASI ACIKLARI (AKDENIZ)   ,3.1,,
2016-12-07,37.7402,27.2237,2746306, KUSADASI KORFEZI (EGE DENIZI)    ,1.7,,
2016-12-07,40.6938,36.5383,2746307, TOSUNLAR-ERBAA (TOKAT)           ,2.1,,
2016-12-07,38.856,27.9525,2746308, TASCILAR-AKHISAR (MANISA)        ,1.6,,
2016-12-06,38.6525,44.3833,2746309, KURUCAN-SARAY (VAN)              ,2.6,,
2016-12-06,40.4737,30.0048,2746310, HISARCIK-OSMANELI (BILECIK)      ,1.6,,
2016-12-06,38.305,39.0725,2746311, MEZRAA-DOGANYOL (MALATYA)        ,1.8,,
2016-12-06,38.7073,43.2388,2746312, AGARTI-(VAN)                     ,1.8,,
2016-12-06,39.4718,26.1192,2746313, KOCAKOY-AYVACIK (CANAKKALE)      ,1.8,,
2016-12-06,39.464,26.0978,2746314, KOCAKOY-AYVACIK (CANAKKALE)      ,2.2,,
2016-12-06,39.085,29.0985,2746315, EGIRLER-SIMAV (KUTAHYA)          ,1.6,,
2016-12-06,37.3062,38.7482,2746316, BEZIRCI-(SANLIURFA)              ,2.3,,
2016-12-06,39.084,26.3633,2746317, MIDILLI ADASI (EGE DENIZI)       ,1.9,,
2016-12-06,36.4047,34.1733,2746318, KIZKALESI-ERDEMLI (MERSIN)       ,2.0,,
2016-12-06,40.5258,29.9358,2746319, ADLIYE-OSMANELI (BILECIK)        ,1.5,,
2016-12-06,37.1998,28.1053,2746320, CIRPI-(MUGLA)                    ,1.9,,
2016-12-06,40.1262,28.7427,2746321, AYVAKOY-NILUFER (BURSA)          ,1.9,,
2016-12-06,37.13,37.3748,2746322, DULUK-SEHITKAMIL (GAZIANTEP)     ,1.9,,
2016-12-06,38.8308,37.2773,2746323, KALEDERE-GURUN (SIVAS)           ,2.2,,
2016-12-06,39.6308,29.3513,2746324, DERBENT-TAVSANLI (KUTAHYA)       ,2.1,,
2016-12-06,35.5858,33.3573,2746325, AKDENIZ                          ,2.1,,
2016-12-06,40.44,29.232,2746326, CIHATLI-GEMLIK (BURSA)           ,1.6,,
2016-12-06,36.4222,34.1668,2746327, KIZKALESI-ERDEMLI (MERSIN)       ,2.0,,
2016-12-06,37.2885,31.8015,2746328, DEGIRMENLIK-AKSEKI (ANTALYA)     ,1.5,,
2016-12-06,37.7437,32.4143,2746329, CAYIRBAGI-MERAM (KONYA)          ,1.6,,
2016-12-06,37.1405,27.8765,2746330, BAGDAMLARI-MILAS (MUGLA)         ,1.9,,
2016-12-06,38.9937,33.469,2746331, HACIBEKTASLI-SEREFLIKOCHISAR (ANK,1.7,,
2016-12-06,38.5992,27.1878,2746332, AYVACIK-MENEMEN (IZMIR)          ,2.0,,
2016-12-06,35.774,30.985,2746333, AKDENIZ                          ,2.1,,
2016-12-06,37.2453,28.2117,2746334, PASAPINARI-(MUGLA)               ,1.8,,
2016-12-06,36.1388,33.5382,2746335, YANISLI-GULNAR (MERSIN)          ,1.7,,
2016-12-06,35.3325,33.3008,2746336, KIBRIS-GIRNE                     ,1.9,,
2016-12-06,37.2385,31.7503,2746337, SALIHLER-AKSEKI (ANTALYA)        ,2.2,,
2016-12-06,40.187,31.7448,2746338, HIRKATEPE-BEYPAZARI (ANKARA)     ,1.9,,
2016-12-06,36.8713,34.5573,2746339, ISIKTEPE-TOROSLAR (MERSIN)       ,1.7,,
2016-12-06,38.977,41.8265,2746340, KECIDERE-(MUS)                   ,2.1,,
2016-12-06,36.6347,36.2402,2746341, BITISIK-ISKENDERUN (HATAY)       ,1.9,,
2016-12-06,36.2842,33.7115,2746342, KIRTIL-SILIFKE (MERSIN)          ,1.3,,
2016-12-06,37.1565,27.8193,2746343, KARACAHISAR-MILAS (MUGLA)        ,1.3,,
2016-12-06,40.209,31.8262,2746344, SARIAGIL-BEYPAZARI (ANKARA)      ,2.3,,
2016-12-06,37.7618,37.5548,2746345, BAGLARBASI-GOLBASI (ADIYAMAN)    ,3.1,,
2016-12-06,34.39,32.6045,2746346, AKDENIZ                          ,2.8,,
2016-12-06,38.8218,37.274,2746347, CAMLICA-GURUN (SIVAS)            ,2.2,,
2016-12-06,36.9395,29.2243,2746348, ELMALI-CAMELI (DENIZLI)          ,1.8,,
2016-12-06,35.9122,28.4003,2746349, AKDENIZ                          ,2.2,,
2016-12-06,38.8648,27.7498,2746350, KAPAKLI-AKHISAR (MANISA)         ,2.4,,
2016-12-06,38.2207,36.9673,2746351, ERCENE-AFSIN (KAHRAMANMARAS)     ,2.1,,
2016-12-06,39.0033,27.7113,2746352, YATAGAN-AKHISAR (MANISA)         ,2.3,,
2016-12-06,36.9133,27.7562,2746353, GOKOVA KORFEZI (AKDENIZ)         ,1.5,,
2016-12-06,36.9912,31.6475,2746354, SINANHOCA-AKSEKI (ANTALYA)       ,2.3,,
2016-12-06,38.4852,31.9117,2746355, TEKELER-ILGIN (KONYA)            ,2.2,,
2016-12-06,37.1467,36.8447,2746356, TULLUCE-NURDAGI (GAZIANTEP)      ,2.6,,
2016-12-06,33.9183,25.667,2746357, GIRIT ADASI ACIKLARI (AKDENIZ)   ,3.0,,
2016-12-06,36.1842,35.7637,2746358, KALE-ISKENDERUN (HATAY)          ,1.9,,
2016-12-06,36.3863,34.1788,2746359, NARLIKUYU-SILIFKE (MERSIN)       ,2.0,,
2016-12-06,39.3505,24.8703,2746360, EGE DENIZI                       ,3.2,,
2016-12-06,39.751,30.5908,2746361, SULTANDERE-ODUNPAZARI (ESKISEHIR),2.0,,
2016-12-06,39.7445,30.55,2746362, ESKISEHIR                        ,2.4,,
2016-12-06,38.7302,43.2807,2746363, ATMACA-(VAN)                     ,2.2,,
2016-12-05,37.0247,28.9937,2746364, GURLEYIK-DALAMAN (MUGLA)         ,1.9,,
2016-12-05,39.7667,26.4355,2746365, BESIK-BAYRAMIC (CANAKKALE)       ,2.0,,
2016-12-05,36.4032,27.664,2746366, ONIKI ADALAR (AKDENIZ)           ,2.2,,
2016-12-05,36.5072,30.7685,2746367, CAMYUVA-KEMER (ANTALYA)          ,2.0,,
2016-12-05,40.0397,27.2662,2746368, ASMALI-CAN (CANAKKALE)           ,2.4,,
2016-12-05,38.722,43.1987,2746369, AGARTI-(VAN)                     ,2.6,,
2016-12-05,36.7547,43.5735,2746370, IRAK                             ,2.7,,
2016-12-05,36.6675,25.6767,2746371, AKDENIZ                          ,3.1,,
2016-12-05,38.9963,27.8378,2746372, KADIDAGI-AKHISAR (MANISA)        ,1.9,,
2016-12-05,41.9718,26.8343,2746373, KALKANSOGUT-LALAPASA (EDIRNE)    ,2.4,,
2016-12-05,37.4755,29.1897,2746374, KIZILCA-TAVAS (DENIZLI)          ,2.4,,
2016-12-05,37.331,28.2462,2746375, DESTIN-YATAGAN (MUGLA)           ,2.0,,
2016-12-05,40.2308,30.3417,2746376, CIMISKI-GOLPAZARI (BILECIK)      ,2.2,,
2016-12-05,36.9768,27.383,2746377, GOKOVA KORFEZI (AKDENIZ)         ,1.7,,
2016-12-05,36.9968,27.3898,2746378, YALI-BODRUM (MUGLA)              ,1.9,,
2016-12-05,36.906,34.727,2746379, YANPAR-AKDENIZ (MERSIN)          ,1.8,,
2016-12-05,37.8725,32.3687,2746380, KUCUKMUHSINE-SELCUKLU (KONYA)    ,1.3,,
2016-12-05,36.4132,34.1182,2746381, NARLIKUYU-SILIFKE (MERSIN)       ,1.6,,
2016-12-05,40.6007,36.4303,2746382, EZEBAGI-ERBAA (TOKAT)            ,2.1,,
2016-12-05,39.1132,25.9715,2746383, MIDILLI ADASI (EGE DENIZI)       ,2.2,,
2016-12-05,38.3103,34.229,2746384, SELIME-GUZELYURT (AKSARAY)       ,1.9,,
2016-12-05,40.0927,31.4842,2746385, HIDIRLAR-NALLIHAN (ANKARA)       ,1.8,,
2016-12-05,40.2527,31.6585,2746386, GOKCEOZ-NALLIHAN (ANKARA)        ,1.9,,
2016-12-05,36.9252,34.4457,2746387, DEMIRISIK-MEZITLI (MERSIN)       ,1.8,,
2016-12-05,41.2872,28.6962,2746388, TAYAKADIN-ARNAVUTKOY (ISTANBUL)  ,1.7,,
2016-12-05,38.2042,38.1563,2746389, ATALAR-YESILYURT (MALATYA)       ,2.1,,
2016-12-05,41.2412,28.7163,2746390, TAYAKADIN-ARNAVUTKOY (ISTANBUL)  ,2.0,,
2016-12-05,41.2073,28.7023,2746391, ARNAVUTKOY (ISTANBUL)            ,1.9,,
2016-12-05,38.2438,34.0667,2746392, BAGLI-(AKSARAY)                  ,1.5,,
2016-12-05,37.1633,27.8812,2746393, KARACAAGAC-MILAS (MUGLA)         ,1.8,,
2016-12-05,35.7985,36.0285,2746394, TURKIYE-SURIYE SINIR BOLGESI     ,1.8,,
2016-12-05,37.2447,31.7973,2746395, SUSUZSAHAP-AKSEKI (ANTALYA)      ,1.9,,
2016-12-05,37.2498,28.1967,2746396, PASAPINARI-(MUGLA)               ,1.9,,
2016-12-05,37.5022,26.8667,2746397, EGE DENIZI                       ,2.2,,
2016-12-05,37.0157,35.007,2746398, MURATLI-TARSUS (MERSIN)          ,1.5,,
2016-12-05,39.0675,26.0222,2746399, MIDILLI ADASI (EGE DENIZI)       ,2.9,,
2016-12-05,39.0102,37.3273,2746400, KARAOREN-GURUN (SIVAS)           ,2.2,,
2016-12-05,40.7818,41.498,2746401, TEKKALE-YUSUFELI (ARTVIN)        ,2.1,,
2016-12-05,38.763,43.2943,2746402, YESILSU-(VAN)                    ,2.2,,
2016-12-05,39.2047,32.4395,2746403, KIRAZOGLU-HAYMANA (ANKARA)       ,2.4,,
2016-12-05,39.117,25.5585,2746404, EGE DENIZI                       ,2.2,,
2016-12-05,37.2912,36.3082,2746405, PIRSULTANLI-DUZICI (OSMANIYE)    ,1.4,,
2016-12-05,38.8632,27.8052,2746406, DOGUCA-AKHISAR (MANISA)          ,1.6,,
2016-12-05,39.3753,25.507,2746407, EGE DENIZI                       ,2.6,,
2016-12-05,38.0882,32.7895,2746408, ZENCIRLI-KARATAY (KONYA)         ,1.5,,
2016-12-05,35.6215,27.8088,2746409, AKDENIZ                          ,2.1,,
2016-12-05,38.7608,43.2935,2746410, YESILSU-(VAN)                    ,2.2,,
2016-12-05,42.299,44.7165,2746411, GURCISTAN                        ,2.7,,
2016-12-05,41.9675,43.9898,2746412, GURCISTAN                        ,2.9,,
2016-12-05,40.1768,28.26,2746413, KUCUKKARAAGAC-KARACABEY (BURSA)  ,1.9,,
2016-12-05,36.8598,27.3998,2746414, GOKOVA KORFEZI (AKDENIZ)         ,1.3,,
2016-12-05,36.8125,42.454,2746415, IRAK                             ,1.8,,
2016-12-05,36.2598,27.1633,2746416, ONIKI ADALAR (AKDENIZ)           ,2.2,,
2016-12-04,40.7098,27.518,2746417, GUZELKOY ACIKLARI-TEKIRDAG (MARMA,2.1,,
2016-12-04,40.384,37.9173,2746418, ASAGIGOKCE-MESUDIYE (ORDU)       ,2.0,,
2016-12-04,41.16,44.3778,2746419, AZERBAYCAN                       ,2.3,,
2016-12-04,38.6655,38.726,2746420, SAHINDERE-BASKIL (ELAZIG)        ,1.5,,
2016-12-04,37.8383,27.5603,2746421, TEKIN-GERMENCIK (AYDIN)          ,1.7,,
2016-12-04,40.417,35.6978,2746422, KAFARLI-GOYNUCEK (AMASYA)        ,1.6,,
2016-12-04,40.7832,31.9422,2746423, DEREKOY-YENICAGA (BOLU)          ,2.0,,
2016-12-04,36.6608,25.6843,2746424, AKDENIZ                          ,2.5,,
2016-12-04,35.8,29.7233,2746425, AKDENIZ                          ,2.2,,
2016-12-04,37.8647,27.5832,2746426, GERMENCIK (AYDIN)                ,1.7,,
2016-12-04,38.1793,43.5735,2746427, SAPAKONAK-GURPINAR (VAN)         ,2.1,,
2016-12-04,39.2492,41.7457,2746428, ERBEYLI-HINIS (ERZURUM)          ,2.0,,
2016-12-04,37.105,28.0853,2746429, ZEYTIN-(MUGLA)                   ,1.7,,
2016-12-04,37.2338,28.15,2746430, CIRPI-(MUGLA)                    ,1.9,,
2016-12-04,38.7605,43.1903,2746431, OZYURT-(VAN)                     ,3.3,,
2016-12-04,34.7615,28.6625,2746432, AKDENIZ                          ,2.6,,
2016-12-04,38.1437,26.2925,2746433, CESME ACIKLARI-IZMIR (EGE DENIZI),2.5,,
2016-12-04,40.0032,43.0115,2746434, EVYAPAN-KAGIZMAN (KARS)          ,2.6,,
2016-12-04,36.6858,36.8173,2746435, SAATLI-(KILIS)                   ,2.1,,
2016-12-04,39.0222,26.5338,2746436, MIDILLI ADASI (EGE DENIZI)       ,2.3,,
2016-12-04,36.0035,27.2508,2746437, AKDENIZ                          ,3.0,,
2016-12-04,36.862,27.3268,2746438, KOS ADASI (AKDENIZ)              ,1.8,,
2016-12-04,38.4438,26.0935,2746439, SAKIZ ADASI (EGE DENIZI)         ,2.1,,
2016-12-04,36.7677,28.1738,2746440, ORHANIYE-MARMARIS (MUGLA)        ,1.5,,
2016-12-04,37.6408,26.6345,2746441, SISAM ADASI (EGE DENIZI)         ,1.8,,
2016-12-04,40.123,31.6183,2746442, DAVUTOGLAN-NALLIHAN (ANKARA)     ,1.8,,
2016-12-04,35.8715,31.0218,2746443, AKDENIZ                          ,2.5,,
2016-12-04,37.113,28.0015,2746444, MEKE-(MUGLA)                     ,1.6,,
2016-12-04,40.4493,26.911,2746445, MARMARA DENIZI                   ,1.6,,
2016-12-04,37.2675,36.398,2746446, FARSAK-DUZICI (OSMANIYE)         ,2.0,,
2016-12-03,37.677,27.6922,2746447, CALLI-KOCARLI (AYDIN)            ,1.5,,
2016-12-03,40.1335,31.6933,2746448, ULUKOY-NALLIHAN (ANKARA)         ,2.1,,
2016-12-03,38.971,29.1327,2746449, CAMKOY-SAPHANE (KUTAHYA)         ,1.6,,
2016-12-03,39.069,26.0097,2746450, MIDILLI ADASI (EGE DENIZI)       ,1.9,,
2016-12-03,39.0045,26.3213,2746451, MIDILLI ADASI (EGE DENIZI)       ,2.0,,
2016-12-03,39.0455,26.4815,2746452, MIDILLI ADASI (EGE DENIZI)       ,2.2,,
2016-12-03,38.5873,26.662,2746453, IZMIR KORFEZI (EGE DENIZI)       ,2.4,,
2016-12-03,36.8027,27.2163,2746454, KOS ADASI (AKDENIZ)              ,2.1,,
2016-12-03,34.2973,24.9985,2746455, GIRIT ADASI ACIKLARI (AKDENIZ)   ,4.2,,
2016-12-03,38.9003,27.7415,2746456, DOGUCA-AKHISAR (MANISA)          ,3.2,,
2016-12-03,39.178,29.0223,2746457, KARACAOREN-SIMAV (KUTAHYA)       ,2.2,,
2016-12-03,39.1277,29.069,2746458, SOGUT-SIMAV (KUTAHYA)            ,2.2,,
2016-12-03,39.6273,29.3393,2746459, DERBENT-TAVSANLI (KUTAHYA)       ,2.1,,
2016-12-03,40.3038,29.0972,2746460, DURDANE-OSMANGAZI (BURSA)        ,1.7,,
2016-12-03,37.1618,27.8393,2746461, CAMKOY-MILAS (MUGLA)             ,1.6,,
2016-12-03,37.7853,27.3847,2746462, YAYLAKOY-KUSADASI (AYDIN)        ,2.0,,
2016-12-03,39.1833,29.0215,2746463, KARACAOREN-SIMAV (KUTAHYA)       ,2.5,,
2016-12-03,37.2403,28.2307,2746464, SALIHPASALAR-(MUGLA)             ,1.8,,
2016-12-03,40.2413,30.7737,2746465, HIMMETOGLU-GOYNUK (BOLU)         ,2.0,,
2016-12-03,40.19,30.809,2746466, SOGUKCAM-GOYNUK (BOLU)           ,2.1,,
2016-12-03,40.1755,30.7947,2746467, SOGUKCAM-GOYNUK (BOLU)           ,2.1,,
2016-12-03,40.2128,30.7825,2746468, HIMMETOGLU-GOYNUK (BOLU)         ,2.1,,
2016-12-03,37.1645,27.848,2746469, IKIZKOY-MILAS (MUGLA)            ,1.7,,
2016-12-03,37.2277,28.2022,2746470, PASAPINARI-(MUGLA)               ,2.3,,
2016-12-03,36.3873,27.6058,2746471, ONIKI ADALAR (AKDENIZ)           ,2.5,,
2016-12-03,36.3737,27.6573,2746472, ONIKI ADALAR (AKDENIZ)           ,3.1,,
2016-12-03,38.8505,39.9938,2746473, MIRAHMET-KARAKOCAN (ELAZIG)      ,2.0,,
2016-12-03,37.105,28.6683,2746474, KAVAKCALI-ULA (MUGLA)            ,2.0,,
2016-12-03,37.3122,26.588,2746475, ONIKI ADALAR (AKDENIZ)           ,2.2,,
2016-12-03,36.4372,29.021,2746476, OLUDENIZ ACIKLARI-MUGLA (AKDENIZ),2.4,,
2016-12-03,38.7802,40.0962,2746477, YUKARIMIRAHMET-KOVANCILAR (ELAZIG,1.4,,
2016-12-03,39.0603,26.0008,2746478, MIDILLI ADASI (EGE DENIZI)       ,2.9,,
2016-12-03,38.7613,43.4437,2746479, YEMLICE-(VAN)                    ,2.3,,
2016-12-03,35.8515,29.399,2746480, AKDENIZ                          ,2.2,,
2016-12-03,36.2543,29.3315,2746481, GELEMIS-KAS (ANTALYA)            ,1.8,,
2016-12-03,39.5555,36.4217,2746482, IGECIK-SARKISLA (SIVAS)          ,1.6,,
2016-12-03,37.0465,36.1087,2746483, SAZLIK-TOPRAKKALE (OSMANIYE)     ,1.7,,
2016-12-03,36.3667,27.6415,2746484, ONIKI ADALAR (AKDENIZ)           ,2.1,,
2016-12-03,38.5937,43.1202,2746485, VAN GOLU                         ,2.0,,
2016-12-03,38.9563,27.6592,2746486, UCAVLU-AKHISAR (MANISA)          ,1.9,,
2016-12-03,37.4012,38.7292,2746487, YIGINAK-(SANLIURFA)              ,2.6,,
2016-12-02,38.769,28.995,2746488, DUMANLAR-SELENDI (MANISA)        ,1.5,,
2016-12-02,37.6978,29.6928,2746489, ASAGIKIRLI-YESILOVA (BURDUR)     ,2.1,,
2016-12-02,36.8935,29.2343,2746490, TASCILAR-CAMELI (DENIZLI)        ,2.2,,
2016-12-02,36.3905,27.6317,2746491, ONIKI ADALAR (AKDENIZ)           ,2.2,,
2016-12-02,36.3998,27.663,2746492, ONIKI ADALAR (AKDENIZ)           ,2.5,,
2016-12-02,36.3908,27.6722,2746493, ONIKI ADALAR (AKDENIZ)           ,2.4,,
2016-12-02,36.2102,27.4383,2746494, ONIKI ADALAR (AKDENIZ)           ,2.3,,
2016-12-02,42.213,23.3562,2746495, BULGARISTAN                      ,3.3,,
2016-12-02,38.6083,38.2762,2746496, BALABAN-YAZIHAN (MALATYA)        ,1.8,,
2016-12-02,37.2718,28.2043,2746497, BAYIR-(MUGLA)                    ,1.9,,
2016-12-02,38.6365,43.1878,2746498, ARISU-(VAN)                      ,2.3,,
2016-12-02,36.9563,30.3997,2746499, SOGUTCUK-KORKUTELI (ANTALYA)     ,1.7,,
2016-12-02,36.5777,33.6278,2746500, KURKCU-MUT (MERSIN)              ,2.0,,
2016-12-02,37.2783,28.1767,2746501, BAHCEYAKA-YATAGAN (MUGLA)        ,2.1,,
2016-12-02,39.8445,33.0483,2746502, KARACAHASAN-ELMADAG (ANKARA)     ,2.0,,
2016-12-02,36.1625,34.317,2746503, KURTULUS ACIKLARI-MERSIN (AKDENIZ,2.3,,
2016-12-02,37.1803,27.8352,2746504, CAMKOY-MILAS (MUGLA)             ,1.6,,
2016-12-02,38.3182,34.1742,2746505, CELTEK-(AKSARAY)                 ,1.5,,
2016-12-02,36.6142,21.6202,2746506, YUNANISTAN                       ,4.2,,
2016-12-02,36.5152,34.3035,2746507, ERDEMLI ACIKLARI-MERSIN (AKDENIZ),1.8,,
2016-12-02,38.6428,31.7817,2746508, TURGUT-YUNAK (KONYA)             ,2.2,,
2016-12-02,38.6403,31.662,2746509, AYRITEPE-YUNAK (KONYA)           ,1.8,,
2016-12-02,38.9422,31.1695,2746510, BALCAM-EMIRDAG (AFYONKARAHISAR)  ,1.9,,
2016-12-02,36.122,33.5147,2746511, YANISLI-GULNAR (MERSIN)          ,2.0,,
2016-12-02,40.6898,32.8205,2746512, KISAC-CERKES (CANKIRI)           ,2.3,,
2016-12-02,38.9847,31.1275,2746513, BASKONAK-EMIRDAG (AFYONKARAHISAR),3.4,,
2016-12-02,37.1675,27.8407,2746514, IKIZKOY-MILAS (MUGLA)            ,2.2,,
2016-12-02,36.8132,28.8703,2746515, KARACAAGAC-DALAMAN (MUGLA)       ,1.8,,
2016-12-02,37.1887,28.1818,2746516, CIFTLIKKOY-(MUGLA)               ,2.1,,
2016-12-02,37.65,35.8715,2746517, KARABUCAK-KOZAN (ADANA)          ,1.4,,
2016-12-02,40.8372,31.1,2746518, YENITASKOPRU-(DUZCE)             ,2.2,,
2016-12-02,35.7097,29.1172,2746519, AKDENIZ                          ,2.4,,
2016-12-02,36.9155,34.4612,2746520, KOCAHAMZALI-YENISEHIR (MERSIN)   ,1.9,,
2016-12-02,36.4785,28.7027,2746521, AKDENIZ                          ,2.3,,
2016-12-02,36.9037,29.304,2746522, GURSU-CAMELI (DENIZLI)           ,2.2,,
2016-12-02,38.7228,43.971,2746523, BOGAZKESEN-OZALP (VAN)           ,1.9,,
2016-12-02,35.6125,31.8425,2746524, AKDENIZ                          ,2.8,,
2016-12-02,37.5675,31.8933,2746525, IRMAKLI-SEYDISEHIR (KONYA)       ,1.8,,
2016-12-01,39.7103,23.5172,2746526, YUNANISTAN                       ,2.7,,
2016-12-01,36.362,28.9248,2746527, OLUDENIZ ACIKLARI-MUGLA (AKDENIZ),2.6,,
2016-12-01,40.2182,31.4712,2746528, YESILYURT-NALLIHAN (ANKARA)      ,2.1,,
2016-12-01,37.2822,36.3413,2746529, BOCEKLI-DUZICI (OSMANIYE)        ,2.0,,
2016-12-01,39.2583,25.9423,2746530, MIDILLI ADASI (EGE DENIZI)       ,2.2,,
2016-12-01,37.2762,28.2165,2746531, BAYIR-(MUGLA)                    ,2.0,,
2016-12-01,39.2887,40.262,2746532, AGACOVEN-KIGI (BINGOL)           ,2.8,,
2016-12-01,39.7083,32.6655,2746533, GOLBASI (ANKARA)                 ,2.0,,
2016-12-01,37.2513,31.7693,2746534, DEGIRMENLIK-AKSEKI (ANTALYA)     ,2.1,,
2016-12-01,40.507,29.9822,2746535, AGLAN-OSMANELI (BILECIK)         ,1.9,,
2016-12-01,39.0417,37.3203,2746536, KARAOREN-GURUN (SIVAS)           ,2.2,,
2016-12-01,37.0173,30.3975,2746537, SOGUTCUK-KORKUTELI (ANTALYA)     ,2.8,,
2016-12-01,37.1337,42.601,2746538, TURKIYE-IRAK SINIR BOLGESI       ,2.5,,
2016-12-01,39.5637,26.0905,2746539, GULPINAR-AYVACIK (CANAKKALE)     ,1.8,,
2016-12-01,37.0695,37.5753,2746540, GUNBULUR-SEHITKAMIL (GAZIANTEP)  ,2.2,,
2016-12-01,37.4512,35.9748,2746541, AKDAM-SUMBAS (OSMANIYE)          ,2.1,,
2016-12-01,38.6958,43.0298,2746542, VAN GOLU                         ,2.3,,
2016-12-01,40.3007,29.4745,2746543, SELIMIYE-YENISEHIR (BURSA)       ,1.6,,
2016-12-01,38.549,39.6033,2746544, KUCUKOVA-MADEN (ELAZIG)          ,2.2,,
2016-12-01,35.4533,31.7617,2746545, AKDENIZ                          ,2.7,,
2016-12-01,40.3208,22.8535,2746546, YUNANISTAN                       ,2.6,,
2016-12-01,40.7012,32.9132,2746547, HACILAR-CERKES (CANKIRI)         ,3.1,,
2016-12-01,40.2072,31.556,2746548, ATCA-NALLIHAN (ANKARA)           ,2.2,,
2016-12-01,37.7012,29.3715,2746549, AYDINLAR-HONAZ (DENIZLI)         ,1.6,,
2016-12-01,36.976,34.4035,2746550, YUKSEKOLUK-TOROSLAR (MERSIN)     ,1.9,,
2016-12-01,36.4858,28.5843,2746551, AKDENIZ                          ,2.0,,
2016-12-01,40.62,23.7135,2746552, YUNANISTAN                       ,2.8,,
2016-12-01,38.5302,26.5287,2746553, KUCUKBAHCE-KARABURUN (IZMIR)     ,2.4,,
2016-12-01,37.24,28.6097,2746554, YEMISENDERE-(MUGLA)              ,2.2,,
2016-12-01,38.6052,43.161,2746555, CITOREN-(VAN)                    ,2.2,,
2016-12-01,38.8558,26.9848,2746556, CANDARLI KORFEZI (EGE DENIZI)    ,2.4,,
2016-12-01,38.6297,43.1562,2746557, MOLLAKASIM-(VAN)                 ,1.5,,
2016-12-01,39.6225,32.8978,2746558, BEYNAM-BALA (ANKARA)             ,1.7,,
2016-12-01,36.7342,27.131,2746559, ONIKI ADALAR (AKDENIZ)           ,2.4,,
2016-12-01,39.6523,32.8062,2746560, BEYNAM-BALA (ANKARA)             ,2.7,,
2016-12-01,39.8083,35.2922,2746561, CIGDEMLI-SORGUN (YOZGAT)         ,2.2,,
2016-12-01,36.8973,29.2768,2746562, TASCILAR-CAMELI (DENIZLI)        ,2.0,,
2016-12-01,38.1173,30.7552,2746563, GARIP-SENIRKENT (ISPARTA)        ,2.0,,
2016-12-01,37.2205,28.7637,2746564, KARACAOREN-(MUGLA)               ,1.9,,
2016-12-01,36.9147,29.2738,2746565, TASCILAR-CAMELI (DENIZLI)        ,2.0,,
2016-12-01,38.6017,42.8427,2746566, VAN GOLU                         ,1.7,,
2016-12-01,35.7228,27.1908,2746567, AKDENIZ                          ,2.6,,
2016-11-30,34.5462,32.1552,2746568, AKDENIZ                          ,3.5,,
2016-11-30,38.8522,43.5513,2746569, BAGDASAN-(VAN)                   ,2.3,,
2016-11-30,39.5683,39.8113,2746570, DEREKOYU-PULUMUR (TUNCELI)       ,1.9,,
2016-11-30,40.9728,22.7618,2746571, YUNANISTAN                       ,4.1,,
2016-11-30,40.4793,27.9788,2746572, KESTANELIK-ERDEK (BALIKESIR)     ,2.4,,
2016-11-30,37.823,32.591,2746573, KARATAY (KONYA)                  ,1.9,,
2016-11-30,38.9712,26.0938,2746574, MIDILLI ADASI (EGE DENIZI)       ,2.5,,
2016-11-30,38.874,26.2322,2746575, EGE DENIZI                       ,2.6,,
2016-11-30,37.0478,28.3698,2746576, GOKOVA-ULA (MUGLA)               ,2.7,,
2016-11-30,37.7273,29.3628,2746577, AYDINLAR-HONAZ (DENIZLI)         ,2.5,,
2016-11-30,34.9318,34.627,2746578, DOGU AKDENIZ                     ,3.0,,
2016-11-30,37.696,29.372,2746579, KARACAY-HONAZ (DENIZLI)          ,2.5,,
2016-11-30,37.1347,27.8528,2746580, BAGDAMLARI-MILAS (MUGLA)         ,1.7,,
2016-11-30,35.8573,31.8397,2746581, AKDENIZ                          ,2.7,,
2016-11-30,37.4025,36.9677,2746582, NEVRUZLU-(KAHRAMANMARAS)         ,2.3,,
2016-11-30,40.1318,31.781,2746583, CANTIRLI-BEYPAZARI (ANKARA)      ,2.3,,
2016-11-30,40.9778,39.8202,2746584, YOMRA (TRABZON)                  ,2.2,,
2016-11-30,35.2405,32.6737,2746585, AKDENIZ                          ,2.8,,
2016-11-30,38.8085,38.7973,2746586, BUKLUMLU-KEBAN (ELAZIG)          ,2.5,,
2016-11-30,39.4303,40.1118,2746587, AGASENLIGI-PULUMUR (TUNCELI)     ,2.1,,
2016-11-30,36.9787,27.7497,2746588, GOKOVA KORFEZI (AKDENIZ)         ,1.8,,
2016-11-30,38.7897,40.192,2746589, KOKLUCE-PALU (ELAZIG)            ,1.5,,
2016-11-30,38.0647,42.6228,2746590, GOKTEPE-HIZAN (BITLIS)           ,1.6,,
2016-11-30,38.9027,27.8133,2746591, DOGUCA-AKHISAR (MANISA)          ,2.0,,
2016-11-30,38.2088,42.9817,2746592, KAYALAR-GEVAS (VAN)              ,2.2,,
2016-11-30,37.5388,26.8968,2746593, EGE DENIZI                       ,2.7,,
2016-11-30,38.6763,38.1358,2746594, AKYAZI-YAZIHAN (MALATYA)         ,1.7,,
2016-11-30,34.4612,32.0557,2746595, AKDENIZ                          ,3.4,,
2016-11-29,40.9895,22.749,2746596, YUNANISTAN                       ,2.1,,
2016-11-29,37.5373,26.8625,2746597, EGE DENIZI                       ,2.5,,
2016-11-29,34.4902,32.0672,2746598, AKDENIZ                          ,3.5,,
2016-11-29,38.447,25.5333,2746599, EGE DENIZI                       ,3.0,,
2016-11-29,39.1658,29.0525,2746600, KARACAOREN-SIMAV (KUTAHYA)       ,1.6,,
2016-11-29,34.5182,32.0738,2746601, AKDENIZ                          ,3.4,,
2016-11-29,40.9992,22.736,2746602, YUNANISTAN                       ,2.5,,
2016-11-29,36.3823,34.5625,2746603, AKDENIZ                          ,2.2,,
2016-11-29,39.0555,26.4993,2746604, MIDILLI ADASI (EGE DENIZI)       ,2.7,,
2016-11-29,36.153,30.9078,2746605, AKDENIZ                          ,2.6,,
2016-11-29,35.795,32.327,2746606, AKDENIZ                          ,2.3,,
2016-11-29,36.9552,30.4263,2746607, SOGUTCUK-KORKUTELI (ANTALYA)     ,2.9,,
2016-11-29,40.511,29.2608,2746608, FINDIKLI-ORHANGAZI (BURSA)       ,2.9,,
2016-11-29,40.2237,30.7412,2746609, KUYUPINAR-GOYNUK (BOLU)          ,2.2,,
2016-11-29,39.3598,33.4155,2746610, BUGUZ-KAMAN (KIRSEHIR)           ,2.0,,
2016-11-29,37.892,30.0548,2746611, BASMAKCI-(BURDUR)                ,1.8,,
2016-11-29,39.484,33.4975,2746612, HACIYUSUFLU-CELEBI (KIRIKKALE)   ,2.1,,
2016-11-29,37.3218,38.6073,2746613, AVLAK-BOZOVA (SANLIURFA)         ,2.3,,
2016-11-29,40.3037,39.9865,2746614, AKSAR-(BAYBURT)                  ,2.2,,
2016-11-29,37.9253,30.0855,2746615, KORPELLI-DINAR (AFYONKARAHISAR)  ,2.1,,
2016-11-29,36.1305,33.5375,2746616, YANISLI-GULNAR (MERSIN)          ,1.7,,
2016-11-29,37.2555,38.7203,2746617, OGUTCU-(SANLIURFA)               ,2.2,,
2016-11-29,36.2427,33.766,2746618, AKDERE-SILIFKE (MERSIN)          ,1.6,,
2016-11-29,39.0635,37.3315,2746619, KIRKPINAR-KANGAL (SIVAS)         ,2.2,,
2016-11-29,37.1497,34.7595,2746620, SANDAL-TARSUS (MERSIN)           ,1.9,,
2016-11-29,39.3553,31.5657,2746621, ERTUGRULKOY-SIVRIHISAR (ESKISEHIR,2.2,,
2016-11-29,37.2605,28.192,2746622, AKGEDIK-YATAGAN (MUGLA)          ,2.5,,
2016-11-29,38.662,43.2093,2746623, MOLLAKASIM-(VAN)                 ,1.7,,
2016-11-29,36.2193,29.6432,2746624, KAS (ANTALYA)                    ,2.1,,
2016-11-29,40.2415,33.3002,2746625, DEGIRMENKAYA-KALECIK (ANKARA)    ,1.9,,
2016-11-29,39.067,40.1528,2746626, SARIBASAK-KARAKOCAN (ELAZIG)     ,1.7,,
2016-11-29,40.5763,35.4542,2746627, BOGAZKAYA-MECITOZU (CORUM)       ,2.3,,
2016-11-29,38.0215,38.5012,2746628, ESKIKOY-SINCIK (ADIYAMAN)        ,1.8,,
2016-11-28,38.2512,27.8795,2746629, KOSELER-ODEMIS (IZMIR)           ,2.1,,
2016-11-28,40.3473,42.1235,2746630, PINARYOLU-NARMAN (ERZURUM)       ,1.7,,
2016-11-28,41.0132,43.8292,2746631, KAYADOVEN-AKYAKA (KARS)          ,2.6,,
2016-11-28,40.7758,28.793,2746632, MARMARA DENIZI                   ,1.9,,
2016-11-28,40.6362,29.2648,2746633, SAMANLI-(YALOVA)                 ,1.8,,
2016-11-28,38.782,25.5217,2746634, EGE DENIZI                       ,2.8,,
2016-11-28,37.0142,36.0563,2746635, DUTLUPINAR-CEYHAN (ADANA)        ,2.2,,
2016-11-28,41.1892,43.0762,2746636, BINBASAK-HANAK (ARDAHAN)         ,1.8,,
2016-11-28,38.4013,43.2368,2746637, AYAZPINAR-EDREMIT (VAN)          ,2.3,,
2016-11-28,38.7523,28.9512,2746638, CINAN-SELENDI (MANISA)           ,1.6,,
2016-11-28,39.2117,36.2598,2746639, KOSELI-GEMEREK (SIVAS)           ,1.9,,
2016-11-28,39.8267,33.0552,2746640, KARACAHASAN-ELMADAG (ANKARA)     ,1.8,,
2016-11-28,36.1277,33.5152,2746641, YANISLI-GULNAR (MERSIN)          ,1.8,,
2016-11-28,37.7507,38.4207,2746642, KUSTEPE-(ADIYAMAN)               ,2.2,,
2016-11-28,37.5003,29.246,2746643, YASSIHUYUK-ACIPAYAM (DENIZLI)    ,2.2,,
2016-11-28,39.024,37.4023,2746644, ETYEMEZ-KANGAL (SIVAS)           ,2.3,,
2016-11-28,38.3262,31.2638,2746645, HISARARDI-YALVAC (ISPARTA)       ,2.2,,
2016-11-28,40.7258,28.674,2746646, MARMARA DENIZI                   ,2.2,,
2016-11-28,38.2512,38.153,2746647, ATALAR-YESILYURT (MALATYA)       ,2.1,,
2016-11-28,38.995,37.5613,2746648, DARILI-KULUNCAK (MALATYA)        ,2.1,,
2016-11-28,38.558,39.5603,2746649, DEGIRMENONU-(ELAZIG)             ,2.4,,
2016-11-28,40.7552,28.6885,2746650, MARMARA DENIZI                   ,2.9,,
2016-11-28,40.7585,28.6797,2746651, MARMARA DENIZI                   ,2.0,,
2016-11-28,39.0367,27.1743,2746652, KOYUNELI-BERGAMA (IZMIR)         ,2.2,,
2016-11-28,40.7618,28.7583,2746653, MARMARA DENIZI                   ,2.2,,
2016-11-28,40.7543,28.716,2746654, MARMARA DENIZI                   ,2.0,,
2016-11-28,38.7082,43.2055,2746655, AGARTI-(VAN)                     ,2.2,,
2016-11-28,35.579,25.9572,2746656, GIRIT ADASI (AKDENIZ)            ,3.1,,
2016-11-28,37.0637,29.0585,2746657, KARACAM-KOYCEGIZ (MUGLA)         ,1.5,,
2016-11-28,39.8778,41.582,2746658, TASAGIL-PASINLER (ERZURUM)       ,1.6,,
2016-11-28,39.8028,41.5963,2746659, AKPINAR-TEKMAN (ERZURUM)         ,1.5,,
2016-11-28,38.9663,27.8142,2746660, MEDAR-AKHISAR (MANISA)           ,2.3,,
2016-11-28,39.7407,28.6053,2746661, CALKANDIL-KEPSUT (BALIKESIR)     ,2.0,,
2016-11-28,38.1773,30.913,2746662, AKDAG-GELENDOST (ISPARTA)        ,2.1,,
2016-11-28,39.1608,29.0647,2746663, AHLATLICESME-SIMAV (KUTAHYA)     ,1.8,,
2016-11-27,37.0642,28.6733,2746664, KAVAKCALI-ULA (MUGLA)            ,2.4,,
2016-11-27,39.3212,27.8447,2746665, HAMIDIYE-KIRKAGAC (MANISA)       ,3.0,,
2016-11-27,40.6008,29.0052,2746666, KOCADERE-CINARCIK (YALOVA)       ,1.6,,
2016-11-27,39.2213,28.1487,2746667, YAYLACIK-SINDIRGI (BALIKESIR)    ,2.2,,
2016-11-27,37.2342,28.1823,2746668, CIRPI-(MUGLA)                    ,1.8,,
2016-11-27,40.7497,28.6953,2746669, MARMARA DENIZI                   ,2.4,,
2016-11-27,40.7453,28.6952,2746670, MARMARA DENIZI                   ,2.1,,
2016-11-27,40.6333,28.9375,2746671, ESENKOY-CINARCIK (YALOVA)        ,1.7,,
2016-11-27,39.1592,29.0087,2746672, KARACAOREN-SIMAV (KUTAHYA)       ,2.5,,
2016-11-27,39.3385,27.6587,2746673, YAGCILI-SOMA (MANISA)            ,2.4,,
2016-11-27,38.4117,44.0765,2746674, KEPIR-SARAY (VAN)                ,2.1,,
2016-11-27,40.6523,28.9918,2746675, SENKOY-CINARCIK (YALOVA)         ,1.8,,
2016-11-27,38.9568,27.7362,2746676, SUNNETCILER-AKHISAR (MANISA)     ,2.2,,
2016-11-27,39.1603,29.0957,2746677, SOGUT-SIMAV (KUTAHYA)            ,2.5,,
2016-11-27,36.4332,35.8912,2746678, ARSUZ-ISKENDERUN (HATAY)         ,2.8,,
2016-11-26,38.641,26.6588,2746679, IZMIR KORFEZI (EGE DENIZI)       ,2.5,,
2016-11-26,39.0538,44.3422,2746680, TURKIYE-IRAN SINIR BOLGESI       ,2.6,,
2016-11-26,35.391,32.9652,2746681, KIBRIS-SADRAZAMKOY               ,3.3,,
2016-11-26,37.2555,28.2295,2746682, PASAPINARI-(MUGLA)               ,1.9,,
2016-11-26,39.6188,29.7687,2746683, ISHAKCILAR-(KUTAHYA)             ,2.2,,
2016-11-26,37.09,28.166,2746684, DENIZOVA-(MUGLA)                 ,1.9,,
2016-11-26,40.7455,28.6917,2746685, MARMARA DENIZI                   ,2.1,,
2016-11-26,37.1662,37.4607,2746686, SUBOGAZI-SEHITKAMIL (GAZIANTEP)  ,2.2,,
2016-11-26,37.2848,31.9137,2746687, SUSUZ-SEYDISEHIR (KONYA)         ,1.8,,
2016-11-26,38.6213,26.7297,2746688, FOCA (IZMIR)                     ,1.7,,
2016-11-26,39.0158,29.6367,2746689, GOYNUK-GEDIZ (KUTAHYA)           ,2.6,,
2016-11-26,40.5632,37.0817,2746690, ALANKOY-BASCIFTLIK (TOKAT)       ,2.9,,
2016-11-26,40.3527,36.81,2746691, BAKIMLI-ALMUS (TOKAT)            ,1.8,,
2016-11-26,40.1022,31.6368,2746692, DAVUTOGLAN-NALLIHAN (ANKARA)     ,1.9,,
2016-11-26,39.755,28.7583,2746693, ELEKCALI-BUYUKORHAN (BURSA)      ,2.2,,
2016-11-26,40.1393,28.7762,2746694, MAKSEMPINARI-NILUFER (BURSA)     ,1.7,,
2016-11-26,38.6592,36.2465,2746695, KIZILHAN-PINARBASI (KAYSERI)     ,1.6,,
2016-11-26,38.5593,39.0818,2746696, GOLKOY-(ELAZIG)                  ,2.1,,
2016-11-26,37.2842,28.2192,2746697, YENIKARAKUYU-YATAGAN (MUGLA)     ,1.9,,
2016-11-26,39.8188,29.9722,2746698, DARIDERE-BOZUYUK (BILECIK)       ,1.8,,
2016-11-26,39.9772,41.8162,2746699, CAKIRTAS-PASINLER (ERZURUM)      ,1.7,,
2016-11-26,38.114,32.6188,2746700, CANDIR-SELCUKLU (KONYA)          ,1.3,,
2016-11-26,37.1572,27.881,2746701, BAGDAMLARI-MILAS (MUGLA)         ,1.7,,
2016-11-26,36.9648,34.596,2746702, MUSALI-TOROSLAR (MERSIN)         ,1.6,,
2016-11-26,37.2005,31.6508,2746703, KUYUCAK-AKSEKI (ANTALYA)         ,2.1,,
2016-11-26,42.11,24.9298,2746704, BULGARISTAN                      ,2.9,,
2016-11-26,39.9133,26.307,2746705, TASTEPE-EZINE (CANAKKALE)        ,1.6,,
2016-11-26,37.2557,37.1035,2746706, EVRI-PAZARCIK (KAHRAMANMARAS)    ,1.8,,
2016-11-26,39.2393,40.1863,2746707, GUNESLIK-YAYLADERE (BINGOL)      ,2.4,,
2016-11-26,39.5975,29.493,2746708, KAYAARASI-TAVSANLI (KUTAHYA)     ,1.7,,
2016-11-26,38.3613,39.1667,2746709, USLU-SIVRICE (ELAZIG)            ,2.5,,
2016-11-26,36.5403,26.5505,2746710, AKDENIZ                          ,2.7,,
2016-11-26,40.5003,29.2843,2746711, FINDIKLI-ORHANGAZI (BURSA)       ,1.8,,
2016-11-26,37.5483,36.069,2746712, YESILYAYLA-SUMBAS (OSMANIYE)     ,2.1,,
2016-11-26,39.5987,29.4517,2746713, KAYAARASI-TAVSANLI (KUTAHYA)     ,1.6,,
2016-11-26,40.7453,27.3647,2746714, GAZIKOY-SARKOY (TEKIRDAG)        ,2.3,,
2016-11-26,39.0147,44.1137,2746715, YUKARIDIKME-CALDIRAN (VAN)       ,2.3,,
2016-11-26,40.4182,29.1993,2746716, CIHATLI-GEMLIK (BURSA)           ,1.2,,
2016-11-26,35.1635,27.7497,2746717, AKDENIZ                          ,2.6,,
2016-11-26,39.0152,26.8097,2746718, BADEMLI-DIKILI (IZMIR)           ,3.0,,
2016-11-26,37.3092,28.4415,2746719, SENYAYLA-(MUGLA)                 ,2.1,,
2016-11-26,38.8167,26.7055,2746720, CANDARLI KORFEZI (EGE DENIZI)    ,2.3,,
2016-11-25,40.5645,23.4348,2746721, YUNANISTAN                       ,3.5,,
2016-11-25,37.8955,30.9577,2746722, SORKUNCAK-EGIRDIR (ISPARTA)      ,2.7,,
2016-11-25,40.369,36.5557,2746723, CAMDERE-(TOKAT)                  ,1.7,,
2016-11-25,40.7442,28.6795,2746724, MARMARA DENIZI                   ,1.6,,
2016-11-25,40.7367,28.6432,2746725, MARMARA DENIZI                   ,1.6,,
2016-11-25,37.3443,38.5872,2746726, AVLAK-BOZOVA (SANLIURFA)         ,2.4,,
2016-11-25,40.7512,28.6457,2746727, MARMARA DENIZI                   ,1.6,,
2016-11-25,40.0277,42.235,2746728, YUKARITAHIRHOCA-HORASAN (ERZURUM),2.7,,
2016-11-25,40.754,28.7043,2746729, MARMARA DENIZI                   ,2.3,,
2016-11-25,40.7538,29.6707,2746730, IZMIT KORFEZI (MARMARA DENIZI)   ,1.3,,
2016-11-25,36.4125,34.1865,2746731, KIZKALESI-ERDEMLI (MERSIN)       ,1.5,,
2016-11-25,40.7677,28.6893,2746732, MARMARA DENIZI                   ,1.8,,
2016-11-25,40.7567,28.7322,2746733, MARMARA DENIZI                   ,1.8,,
2016-11-25,41.151,29.6172,2746734, IMRENDERE-SILE (ISTANBUL)        ,1.5,,
2016-11-25,37.1842,28.2945,2746735, YESILYURT-(MUGLA)                ,1.5,,
2016-11-25,39.0133,32.8427,2746736, KOZANLI-KULU (KONYA)             ,1.9,,
2016-11-25,40.2673,28.4387,2746737, HARMANLI-KARACABEY (BURSA)       ,1.4,,
2016-11-25,37.9382,29.134,2746738, DEVELI-(DENIZLI)                 ,2.7,,
2016-11-25,39.3653,33.6987,2746739, KAMAN (KIRSEHIR)                 ,1.5,,
2016-11-25,37.2505,31.851,2746740, SUSUZSAHAP-AKSEKI (ANTALYA)      ,1.7,,
2016-11-25,37.3197,31.8753,2746741, MADENLI-SEYDISEHIR (KONYA)       ,1.9,,
2016-11-25,37.1387,27.805,2746742, KARACAHISAR-MILAS (MUGLA)        ,1.8,,
2016-11-25,37.1663,27.8415,2746743, IKIZKOY-MILAS (MUGLA)            ,1.4,,
2016-11-25,37.2748,27.9637,2746744, BENCIK-YATAGAN (MUGLA)           ,2.0,,
2016-11-25,39.6845,25.5428,2746745, EGE DENIZI                       ,3.1,,
2016-11-25,36.1315,33.539,2746746, YANISLI-GULNAR (MERSIN)          ,1.7,,
2016-11-25,37.194,28.1467,2746747, CIRPI-(MUGLA)                    ,1.8,,
2016-11-25,36.0543,28.408,2746748, AKDENIZ                          ,2.3,,
2016-11-25,39.6138,29.434,2746749, KAYAARASI-TAVSANLI (KUTAHYA)     ,2.0,,
2016-11-25,39.6137,29.4515,2746750, KAYAARASI-TAVSANLI (KUTAHYA)     ,2.1,,
2016-11-25,38.2643,26.6625,2746751, YAGCILAR-URLA (IZMIR)            ,2.1,,
2016-11-25,37.0838,27.9113,2746752, BAYIRKOY-MILAS (MUGLA)           ,1.4,,
2016-11-25,35.2122,33.9907,2746753, KIBRIS-TUZLA                     ,2.7,,
2016-11-25,40.2483,36.5017,2746754, GOKCE-(TOKAT)                    ,1.7,,
2016-11-25,35.3073,33.4858,2746755, KIBRIS-BESPARMAK                 ,2.2,,
2016-11-25,35.178,33.7397,2746756, KIBRIS-TUZLA                     ,2.4,,
2016-11-25,39.123,37.6832,2746757, DUZCE-KANGAL (SIVAS)             ,2.0,,
2016-11-25,40.749,28.6847,2746758, MARMARA DENIZI                   ,2.0,,
2016-11-25,39.4938,28.8232,2746759, BOYALICA-DURSUNBEY (BALIKESIR)   ,1.9,,
2016-11-25,39.1602,29.1072,2746760, SOGUT-SIMAV (KUTAHYA)            ,1.5,,
2016-11-25,37.7792,29.4873,2746761, SAPACA-HONAZ (DENIZLI)           ,1.6,,
2016-11-25,38.7607,27.8707,2746762, AKSELENDI-AKHISAR (MANISA)       ,1.8,,
2016-11-25,38.5278,43.9005,2746763, HAZINE-OZALP (VAN)               ,2.8,,
2016-11-25,39.7462,25.7313,2746764, EGE DENIZI                       ,2.0,,
2016-11-25,38.6828,26.9657,2746765, ILIPINAR-FOCA (IZMIR)            ,2.2,,
2016-11-25,37.1087,28.8282,2746766, YAYLA-KOYCEGIZ (MUGLA)           ,2.2,,
2016-11-25,40.3617,25.9038,2746767, KALEKOY-GOKCEADA (CANAKKALE)     ,2.2,,
2016-11-25,39.1135,26.1187,2746768, MIDILLI ADASI (EGE DENIZI)       ,2.4,,
2016-11-25,38.5852,38.2537,2746769, GOVUK-YAZIHAN (MALATYA)          ,1.8,,
2016-11-25,38.4488,43.8488,2746770, KARAKOC-GURPINAR (VAN)           ,3.0,,
2016-11-25,38.5205,43.9398,2746771, HAZINE-OZALP (VAN)               ,2.6,,
2016-11-25,40.2013,25.194,2746772, EGE DENIZI                       ,1.9,,
2016-11-24,39.2537,41.3542,2746773, ARMUTKASI-VARTO (MUS)            ,2.0,,
2016-11-24,38.5473,43.8447,2746774, YUKARICAVDARLIK-OZALP (VAN)      ,1.8,,
2016-11-24,36.9198,31.1498,2746775, BUKLUCE-MANAVGAT (ANTALYA)       ,2.1,,
2016-11-24,38.5557,43.8757,2746776, YUKARICAVDARLIK-OZALP (VAN)      ,4.0,,
2016-11-24,37.4872,43.624,2746777, CIMENLI-(HAKKARI)                ,2.1,,
2016-11-24,38.79,26.6918,2746778, CANDARLI KORFEZI (EGE DENIZI)    ,1.8,,
2016-11-24,37.5935,29.2115,2746779, SARIABAT-TAVAS (DENIZLI)         ,1.7,,
2016-11-24,40.8602,41.5608,2746780, MUTLUGUN-YUSUFELI (ARTVIN)       ,2.0,,
2016-11-24,38.1837,32.3765,2746781, LADIK-SARAYONU (KONYA)           ,1.5,,
2016-11-24,40.9147,35.796,2746782, EGNEKARACA-LADIK (SAMSUN)        ,1.9,,
2016-11-24,35.567,28.8602,2746783, AKDENIZ                          ,2.9,,
2016-11-24,37.4358,27.0182,2746784, EGE DENIZI                       ,1.8,,
2016-11-24,36.9268,28.2465,2746785, KARACA-MARMARIS (MUGLA)          ,1.4,,
2016-11-24,38.3168,39.4167,2746786, CAYBASI-CUNGUS (DIYARBAKIR)      ,2.3,,
2016-11-24,38.6503,43.4042,2746787, ASIT-(VAN)                       ,1.8,,
2016-11-24,37.663,34.9753,2746788, BEYAZKISLAKCI-CAMARDI (NIGDE)    ,1.5,,
2016-11-24,37.2112,27.8675,2746789, KAYADERE-MILAS (MUGLA)           ,2.0,,
2016-11-24,37.3482,31.9287,2746790, GOLYUZU-SEYDISEHIR (KONYA)       ,1.8,,
2016-11-24,40.4267,31.1207,2746791, ORMANPINAR-MUDURNU (BOLU)        ,1.8,,
2016-11-24,38.1575,32.599,2746792, CANDIR-SELCUKLU (KONYA)          ,1.4,,
2016-11-24,36.759,29.4622,2746793, BAYIRKOY-FETHIYE (MUGLA)         ,2.1,,
2016-11-24,37.5392,36.9163,2746794, HACIMUSTAFA-(KAHRAMANMARAS)      ,1.7,,
2016-11-24,40.5437,31.809,2746795, COKELER-KIBRISCIK (BOLU)         ,1.9,,
2016-11-24,40.3833,28.3895,2746796, BAYRAMDERE-KARACABEY (BURSA)     ,1.7,,
2016-11-24,40.4922,29.2742,2746797, FINDIKLI-ORHANGAZI (BURSA)       ,1.4,,
2016-11-24,36.2757,33.6685,2746798, ISIKLI-SILIFKE (MERSIN)          ,1.6,,
2016-11-24,37.234,28.1825,2746799, CAYBUKU-(MUGLA)                  ,2.3,,
2016-11-24,39.6057,29.527,2746800, TUNCBILEK-TAVSANLI (KUTAHYA)     ,1.6,,
2016-11-24,37.0053,27.3857,2746801, YALI-BODRUM (MUGLA)              ,1.6,,
2016-11-24,38.5708,43.062,2746802, VAN GOLU                         ,1.7,,
2016-11-24,39.0852,37.3163,2746803, HAMAL-KANGAL (SIVAS)             ,2.4,,
2016-11-24,38.0683,32.5927,2746804, SARICALAR-SELCUKLU (KONYA)       ,1.7,,
2016-11-24,39.6322,29.4993,2746805, TUNCBILEK-TAVSANLI (KUTAHYA)     ,2.0,,
2016-11-24,39.643,29.5075,2746806, TUNCBILEK-TAVSANLI (KUTAHYA)     ,2.0,,
2016-11-24,40.1428,31.5573,2746807, ATCA-NALLIHAN (ANKARA)           ,2.3,,
2016-11-24,38.4863,43.9308,2746808, ELACMAZ-GURPINAR (VAN)           ,2.3,,
2016-11-24,35.9142,27.3655,2746809, AKDENIZ                          ,2.8,,
2016-11-24,39.1147,26.7825,2746810, DIKILI ACIKLARI-IZMIR (EGE DENIZI,2.1,,
2016-11-24,41.784,22.154,2746811, MAKEDONYA                        ,3.0,,
2016-11-24,35.7492,30.7103,2746812, AKDENIZ                          ,3.0,,
2016-11-23,36.3913,28.123,2746813, RODOS ADASI (AKDENIZ)            ,2.5,,
2016-11-23,38.2717,32.764,2746814, OLMEZ-ALTINEKIN (KONYA)          ,1.6,,
2016-11-23,37.088,29.1917,2746815, KOLAK-CAMELI (DENIZLI)           ,1.7,,
2016-11-23,38.6208,43.8105,2746816, CALIMLI-(VAN)                    ,2.0,,
2016-11-23,38.6503,26.821,2746817, YENIBAGARASI-FOCA (IZMIR)        ,1.9,,
2016-11-23,41.2643,43.8057,2746818, GURCISTAN                        ,2.4,,
2016-11-23,37.8885,27.5827,2746819, HIDIRBEYLI-GERMENCIK (AYDIN)     ,2.1,,
2016-11-23,38.3985,26.7933,2746820, IZMIR KORFEZI (EGE DENIZI)       ,2.3,,
2016-11-23,39.4693,28.0525,2746821, DEDECINAR-BIGADIC (BALIKESIR)    ,2.4,,
2016-11-23,37.785,26.7743,2746822, SISAM ADASI (EGE DENIZI)         ,2.5,,
2016-11-23,38.7015,43.6057,2746823, KARAGUNDUZ-(VAN)                 ,2.0,,
2016-11-23,39.8043,38.6003,2746824, RESULLAR-REFAHIYE (ERZINCAN)     ,2.2,,
2016-11-23,38.3927,44.0095,2746825, ELACMAZ-GURPINAR (VAN)           ,2.7,,
2016-11-23,40.1117,33.1515,2746826, UZUNLAR-AKYURT (ANKARA)          ,1.6,,
2016-11-23,40.977,31.1778,2746827, KABALAK-(DUZCE)                  ,2.0,,
2016-11-23,41.0638,29.7235,2746828, SORTULLU-SILE (ISTANBUL)         ,1.6,,
2016-11-23,37.0907,34.8802,2746829, YAZLIK-TARSUS (MERSIN)           ,1.8,,
2016-11-23,37.0667,34.7888,2746830, MESELIK-TARSUS (MERSIN)          ,2.0,,
2016-11-23,39.597,29.7822,2746831, ISHAKCILAR-(KUTAHYA)             ,1.9,,
2016-11-23,36.9103,27.5658,2746832, GOKOVA KORFEZI (AKDENIZ)         ,2.1,,
2016-11-23,38.9102,27.7725,2746833, BEKIRLER-AKHISAR (MANISA)        ,2.1,,
2016-11-23,39.6,39.7877,2746834, DEMIRPINAR-UZUMLU (ERZINCAN)     ,2.5,,
2016-11-23,41.1153,28.8993,2746835, SULTANGAZI (ISTANBUL)            ,1.4,,
2016-11-23,38.4288,39.3482,2746836, SUREK-SIVRICE (ELAZIG)           ,2.8,,
2016-11-23,38.4185,39.3447,2746837, ELMASUYU-SIVRICE (ELAZIG)        ,2.7,,
2016-11-23,37.7758,26.6327,2746838, SISAM ADASI (EGE DENIZI)         ,2.3,,
2016-11-23,39.9088,28.787,2746839, CIVILI-ORHANELI (BURSA)          ,1.8,,
2016-11-23,38.5553,43.814,2746840, KARAKOC-(VAN)                    ,2.7,,
2016-11-23,39.0392,37.321,2746841, KARAOREN-GURUN (SIVAS)           ,2.4,,
2016-11-23,40.5147,29.2437,2746842, HAMZALI-ORHANGAZI (BURSA)        ,1.7,,
2016-11-23,39.13,29.114,2746843, INLICE-SIMAV (KUTAHYA)           ,2.5,,
2016-11-23,37.1038,41.2585,2746844, BEYLIK-NUSAYBIN (MARDIN)         ,2.2,,
2016-11-23,35.4047,27.0155,2746845, AKDENIZ                          ,2.8,,
2016-11-23,38.6247,43.7648,2746846, DEGIRMENARKI-(VAN)               ,2.2,,
2016-11-23,37.3378,31.9882,2746847, SUSUZ-SEYDISEHIR (KONYA)         ,2.1,,
2016-11-23,37.238,28.1485,2746848, CAYBUKU-(MUGLA)                  ,1.8,,
2016-11-23,38.5345,43.8373,2746849, KARLIYAMAC-OZALP (VAN)           ,3.5,,
2016-11-23,37.1558,27.8567,2746850, IKIZKOY-MILAS (MUGLA)            ,1.8,,
2016-11-23,37.1895,27.857,2746851, CAMKOY-MILAS (MUGLA)             ,1.5,,
2016-11-23,37.179,27.8453,2746852, KAYADERE-MILAS (MUGLA)           ,1.8,,
2016-11-23,40.6227,26.5352,2746853, MECIDIYE-KESAN (EDIRNE)          ,1.7,,
2016-11-23,37.1823,27.8485,2746854, CAMKOY-MILAS (MUGLA)             ,1.8,,
2016-11-23,35.491,29.4605,2746855, AKDENIZ                          ,2.6,,
2016-11-23,38.6827,35.8083,2746856, KOCCAGIZ-TALAS (KAYSERI)         ,2.0,,
2016-11-23,40.4598,29.2022,2746857, CIHATLI-GEMLIK (BURSA)           ,1.4,,
2016-11-23,39.6195,29.4933,2746858, TUNCBILEK-TAVSANLI (KUTAHYA)     ,1.8,,
2016-11-23,38.814,43.5175,2746859, DEREBEY-(VAN)                    ,2.5,,
2016-11-23,35.7355,29.6282,2746860, AKDENIZ                          ,2.6,,
2016-11-23,37.1623,28.7952,2746861, KARACAOREN-(MUGLA)               ,1.9,,
2016-11-23,36.3505,29.5065,2746862, IKIZCE-KAS (ANTALYA)             ,2.1,,
2016-11-23,37.2155,28.1898,2746863, KAFACA-(MUGLA)                   ,2.2,,
2016-11-23,37.132,35.8702,2746864, KARAKAYALI-CEYHAN (ADANA)        ,1.9,,
2016-11-23,40.1248,31.6003,2746865, DAVUTOGLAN-NALLIHAN (ANKARA)     ,2.0,,
2016-11-23,37.87,27.6313,2746866, GERMENCIK (AYDIN)                ,1.7,,
2016-11-23,40.4498,29.1863,2746867, CIHATLI-GEMLIK (BURSA)           ,1.9,,
2016-11-23,38.5493,39.5165,2746868, KUCUKOVA-MADEN (ELAZIG)          ,1.9,,
2016-11-23,41.1152,43.6982,2746869, ERMENISTAN                       ,1.8,,
2016-11-23,37.4958,35.4497,2746870, EGNER-ALADAG (ADANA)             ,1.8,,
2016-11-23,35.6213,26.4485,2746871, AKDENIZ                          ,3.8,,
2016-11-23,37.7517,33.4173,2746872, KARAPINAR (KONYA)                ,2.2,,
2016-11-23,40.7318,42.3897,2746873, KAYALISU-SENKAYA (ERZURUM)       ,2.8,,
2016-11-23,34.6137,33.5745,2746874, KIBRIS ACIKLARI-GUNEY--(AKDENIZ) ,3.0,,
2016-11-23,38.946,27.784,2746875, DOGUCA-AKHISAR (MANISA)          ,2.0,,
2016-11-23,38.7887,25.5482,2746876, EGE DENIZI                       ,2.3,,
2016-11-23,37.3242,30.508,2746877, GUNDOGDU-BUCAK (BURDUR)          ,2.2,,
2016-11-22,40.0992,34.1653,2746878, AKPINAR-SUNGURLU (CORUM)         ,2.0,,
2016-11-22,37.7228,26.8025,2746879, SISAM ADASI (EGE DENIZI)         ,2.3,,
2016-11-22,37.2357,26.8847,2746880, ONIKI ADALAR (AKDENIZ)           ,1.8,,
2016-11-22,41.1438,28.912,2746881, PIRINCCI-EYUP (ISTANBUL)         ,1.3,,
2016-11-22,38.5647,26.2593,2746882, KUCUKBAHCE ACIKLARI-IZMIR (EGE DE,2.5,,
2016-11-22,36.4017,34.1453,2746883, NARLIKUYU-SILIFKE (MERSIN)       ,2.0,,
2016-11-22,41.8487,27.3125,2746884, KORUKOY-(KIRKLARELI)             ,2.0,,
2016-11-22,40.3612,31.5565,2746885, SUSUZ-SEBEN (BOLU)               ,1.9,,
2016-11-22,38.6308,31.4187,2746886, UCKUYU-SULTANDAGI (AFYONKARAHISAR,1.8,,
2016-11-22,40.2137,33.9013,2746887, ESENPINAR-SULAKYURT (KIRIKKALE)  ,2.5,,
2016-11-22,35.4978,29.4982,2746888, AKDENIZ                          ,2.8,,
2016-11-22,36.2502,33.7583,2746889, AKDERE-SILIFKE (MERSIN)          ,1.3,,
2016-11-22,39.6228,29.5055,2746890, TUNCBILEK-TAVSANLI (KUTAHYA)     ,2.0,,
2016-11-22,36.1235,33.5433,2746891, YANISLI-GULNAR (MERSIN)          ,1.8,,
2016-11-22,37.1178,27.837,2746892, PINARARASI-MILAS (MUGLA)         ,1.4,,
2016-11-22,37.1572,27.8508,2746893, GOKCELER-MILAS (MUGLA)           ,1.5,,
2016-11-22,39.643,29.4522,2746894, TUNCBILEK-TAVSANLI (KUTAHYA)     ,2.2,,
2016-11-22,39.1778,36.525,2746895, OLUKTAS-SARKISLA (SIVAS)         ,2.2,,
2016-11-22,40.1478,31.5133,2746896, ATCA-NALLIHAN (ANKARA)           ,1.9,,
2016-11-22,39.4137,31.5372,2746897, YUKARIKEPEN-SIVRIHISAR (ESKISEHIR,1.5,,
2016-11-22,37.258,28.2227,2746898, PASAPINARI-(MUGLA)               ,1.7,,
2016-11-22,37.779,26.4203,2746899, ONIKI ADALAR (AKDENIZ)           ,2.7,,
2016-11-22,37.0008,27.735,2746900, MAZIKOY-BODRUM (MUGLA)           ,1.8,,
2016-11-22,35.6295,31.622,2746901, AKDENIZ                          ,2.0,,
2016-11-22,40.997,22.7128,2746902, YUNANISTAN                       ,2.9,,
2016-11-22,35.6007,31.741,2746903, AKDENIZ                          ,2.3,,
2016-11-22,37.1118,33.1673,2746904, CAVUSPINARI-(KARAMAN)            ,2.0,,
2016-11-22,34.7573,24.8842,2746905, GIRIT ADASI ACIKLARI (AKDENIZ)   ,3.1,,
2016-11-22,37.5302,29.6465,2746906, SALDA-YESILOVA (BURDUR)          ,2.2,,
2016-11-22,37.9185,33.9135,2746907, BELKAYA-EREGLI (KONYA)           ,1.7,,
2016-11-22,41.0378,33.8288,2746908, SARAYCIK-ILGAZ (CANKIRI)         ,2.2,,
2016-11-22,39.5285,26.0753,2746909, GULPINAR-AYVACIK (CANAKKALE)     ,2.6,,
2016-11-22,37.8573,43.4647,2746910, TOPYILDIZ-GURPINAR (VAN)         ,2.3,,
2016-11-22,36.511,26.9663,2746911, ONIKI ADALAR (AKDENIZ)           ,3.1,,
2016-11-22,37.1318,28.7735,2746912, TURGUT-ULA (MUGLA)               ,2.1,,
2016-11-21,38.6793,43.3103,2746913, YUMRUTEPE-(VAN)                  ,2.3,,
2016-11-21,40.3698,28.2553,2746914, KURSUNLU-KARACABEY (BURSA)       ,2.2,,
2016-11-21,36.9948,27.4115,2746915, BODRUM (MUGLA)                   ,2.1,,
2016-11-21,34.5993,32.907,2746916, AKDENIZ                          ,2.8,,
2016-11-21,39.8642,28.7932,2746917, GAZIOLUK-ORHANELI (BURSA)        ,1.8,,
2016-11-21,40.996,22.7415,2746918, YUNANISTAN                       ,2.3,,
2016-11-21,40.1402,28.816,2746919, KURUCESME-NILUFER (BURSA)        ,1.6,,
2016-11-21,34.7277,32.8582,2746920, KIBRIS RUM KESIMI                ,2.4,,
2016-11-21,37.373,37.6008,2746921, DAGDANCIK-ARABAN (GAZIANTEP)     ,2.1,,
2016-11-21,37.0917,32.8565,2746922, DAMLAPINAR-(KARAMAN)             ,2.0,,
2016-11-21,39.9377,33.1377,2746923, ELMADAG (ANKARA)                 ,1.7,,
2016-11-21,39.7273,32.6255,2746924, DEVECI-HAYMANA (ANKARA)          ,2.0,,
2016-11-21,39.1545,29.0553,2746925, AHLATLICESME-SIMAV (KUTAHYA)     ,2.2,,
2016-11-21,39.1098,29.062,2746926, SOGUT-SIMAV (KUTAHYA)            ,2.4,,
2016-11-21,38.8368,23.8407,2746927, YUNANISTAN                       ,3.2,,
2016-11-21,40.2577,28.4505,2746928, SEYRAN-KARACABEY (BURSA)         ,1.8,,
2016-11-21,37.1122,31.8002,2746929, YARPUZ-AKSEKI (ANTALYA)          ,2.4,,
2016-11-21,39.0602,37.3138,2746930, MAGARA-GURUN (SIVAS)             ,2.1,,
2016-11-21,38.346,34.1247,2746931, SEVINCLI-(AKSARAY)               ,1.7,,
2016-11-21,35.0648,32.993,2746932, KIBRIS-ZUMRUTKOY                 ,3.3,,
2016-11-21,37.2465,28.1927,2746933, BAHCEYAKA-YATAGAN (MUGLA)        ,1.7,,
2016-11-21,37.1603,27.8622,2746934, IKIZKOY-MILAS (MUGLA)            ,2.0,,
2016-11-21,39.0795,26.2528,2746935, MIDILLI ADASI (EGE DENIZI)       ,2.3,,
2016-11-21,37.2763,31.8972,2746936, SUSUZ-SEYDISEHIR (KONYA)         ,2.1,,
2016-11-21,39.119,26.2155,2746937, MIDILLI ADASI (EGE DENIZI)       ,2.6,,
2016-11-21,39.0507,26.2575,2746938, MIDILLI ADASI (EGE DENIZI)       ,2.6,,
2016-11-21,38.2905,33.3792,2746939, SAGSAK-ESKIL (AKSARAY)           ,3.1,,
2016-11-21,39.2267,26.2202,2746940, MIDILLI ADASI (EGE DENIZI)       ,2.6,,
2016-11-21,39.9615,38.5313,2746941, SOGUKSU-GOLOVA (SIVAS)           ,3.6,,
2016-11-21,40.7332,29.0532,2746942, CINARCIK ACIKLARI-YALOVA (MARMARA,2.6,,
2016-11-21,35.4035,23.5422,2746943, GIRIT ADASI (AKDENIZ)            ,3.5,,
2016-11-21,39.9822,38.6265,2746944, CEVRECIK-GOLOVA (SIVAS)          ,3.6,,
2016-11-21,36.0358,29.6145,2746945, KAS ACIKLARI-ANTALYA (AKDENIZ)   ,1.6,,
2016-11-20,40.525,29.0973,2746946, GUNEYKOY-(YALOVA)                ,1.6,,
2016-11-20,39.3323,26.0808,2746947, MIDILLI ADASI (EGE DENIZI)       ,2.4,,
2016-11-20,37.4623,30.8013,2746948, ELSAZI-BUCAK (BURDUR)            ,1.7,,
2016-11-20,37.6847,30.6657,2746949, ELSAZI-BUCAK (BURDUR)            ,1.5,,
2016-11-20,37.4997,30.8533,2746950, AKBELENLI-EGIRDIR (ISPARTA)      ,2.3,,
2016-11-20,37.9013,30.492,2746951, KOCTEPE-GONEN (ISPARTA)          ,1.7,,
2016-11-20,36.2753,27.1418,2746952, AKDENIZ                          ,2.0,,
2016-11-20,36.9098,27.6803,2746953, GOKOVA KORFEZI (AKDENIZ)         ,2.1,,
2016-11-20,40.8092,28.3802,2746954, MARMARA DENIZI                   ,2.4,,
2016-11-20,37.7282,33.468,2746955, YAGMAPINAR-KARAPINAR (KONYA)     ,1.6,,
2016-11-20,36.9813,27.3725,2746956, YALI-BODRUM (MUGLA)              ,2.1,,
2016-11-20,37.3302,26.6557,2746957, ONIKI ADALAR (AKDENIZ)           ,2.8,,
2016-11-20,39.0237,37.3213,2746958, KARAOREN-GURUN (SIVAS)           ,2.0,,
2016-11-20,36.9648,27.304,2746959, AKYARLAR-BODRUM (MUGLA)          ,1.5,,
2016-11-20,37.6122,29.2332,2746960, SARIABAT-TAVAS (DENIZLI)         ,1.7,,
2016-11-20,36.854,27.444,2746961, GOKOVA KORFEZI (AKDENIZ)         ,1.6,,
2016-11-20,36.9525,27.2855,2746962, KOS ADASI (AKDENIZ)              ,1.5,,
2016-11-20,40.495,29.2727,2746963, SAHINYURDU-GEMLIK (BURSA)        ,1.5,,
2016-11-20,37.6243,26.7772,2746964, EGE DENIZI                       ,2.3,,
2016-11-20,39.2777,29.353,2746965, OMERFAKI-EMET (KUTAHYA)          ,2.0,,
2016-11-20,37.2645,28.2275,2746966, PASAPINARI-(MUGLA)               ,1.8,,
2016-11-20,37.856,38.5303,2746967, DOLUCA-KAHTA (ADIYAMAN)          ,1.6,,
2016-11-20,36.9665,27.3428,2746968, GOKOVA KORFEZI (AKDENIZ)         ,1.6,,
2016-11-20,37.7967,27.5818,2746969, TURANLAR-GERMENCIK (AYDIN)       ,3.2,,
2016-11-20,37.103,27.4262,2746970, CAMLIK-BODRUM (MUGLA)            ,1.4,,
2016-11-20,39.0442,37.3472,2746971, HAMAL-KANGAL (SIVAS)             ,2.3,,
2016-11-20,37.1627,27.8415,2746972, IKIZKOY-MILAS (MUGLA)            ,1.8,,
2016-11-20,40.2908,31.7792,2746973, SEKLI-BEYPAZARI (ANKARA)         ,2.1,,
2016-11-20,40.2187,31.5995,2746974, EYMIR-NALLIHAN (ANKARA)          ,2.1,,
2016-11-20,37.8753,34.2202,2746975, ZENGEN-EREGLI (KONYA)            ,2.2,,
2016-11-20,37.0122,27.3002,2746976, TURGUTREIS-BODRUM (MUGLA)        ,1.3,,
2016-11-20,39.0453,27.1013,2746977, KURFALLI-BERGAMA (IZMIR)         ,1.9,,
2016-11-20,36.962,27.299,2746978, GOKOVA KORFEZI (AKDENIZ)         ,2.2,,
2016-11-20,38.2058,26.175,2746979, CESME ACIKLARI-IZMIR (EGE DENIZI),1.9,,
2016-11-20,37.6655,29.2403,2746980, KARATAS-(DENIZLI)                ,1.6,,
2016-11-20,39.265,40.1035,2746981, CATALKAYA-YAYLADERE (BINGOL)     ,1.7,,
2016-11-20,36.0703,29.6162,2746982, KAS (ANTALYA)                    ,2.3,,
2016-11-20,35.7833,31.0088,2746983, AKDENIZ                          ,2.4,,
2016-11-20,40.1697,31.7545,2746984, SEKLI-BEYPAZARI (ANKARA)         ,2.3,,
2016-11-20,39.1475,29.0687,2746985, AHLATLICESME-SIMAV (KUTAHYA)     ,1.7,,
2016-11-20,38.4457,25.9123,2746986, SAKIZ ADASI (EGE DENIZI)         ,2.1,,
2016-11-20,39.4202,27.7383,2746987, KIRAZPINAR-(BALIKESIR)           ,1.8,,
2016-11-20,37.0342,27.3533,2746988, ISLAMHANELERI-BODRUM (MUGLA)     ,1.5,,
2016-11-20,39.5392,39.8872,2746989, DAGYOLU-PULUMUR (TUNCELI)        ,1.7,,
2016-11-20,39.142,36.1875,2746990, HACIYUSUF-GEMEREK (SIVAS)        ,2.9,,
2016-11-20,40.154,27.3875,2746991, TAHTALI-GONEN (BALIKESIR)        ,2.8,,
2016-11-20,37.135,28.7365,2746992, TURGUT-ULA (MUGLA)               ,1.6,,
2016-11-20,33.2898,35.316,2746993, DOGU AKDENIZ                     ,3.4,,
2016-11-20,33.8232,25.6887,2746994, GIRIT ADASI ACIKLARI (AKDENIZ)   ,3.4,,
2016-11-20,36.0113,40.872,2746995, SURIYE                           ,4.2,,
2016-11-19,38.7453,27.8023,2746996, KUMKUYUCAK-SARUHANLI (MANISA)    ,2.6,,
2016-11-19,37.5653,26.9045,2746997, EGE DENIZI                       ,2.1,,
2016-11-19,40.4817,29.292,2746998, ORHANGAZI (BURSA)                ,1.4,,
2016-11-19,40.272,36.4347,2746999, CAMALTI-(TOKAT)                  ,2.2,,
2016-11-19,36.5815,35.0328,2747000, TUZLA ACIKLARI-ADANA (AKDENIZ)   ,2.2,,
2016-11-19,36.4363,34.0972,2747001, NARLIKUYU-SILIFKE (MERSIN)       ,1.9,,
2016-11-19,39.658,29.826,2747002, GAZELYAKUP-TAVSANLI (KUTAHYA)    ,2.2,,
2016-11-19,40.0043,29.1037,2747003, SEFERISIKLAR-OSMANGAZI (BURSA)   ,2.7,,
2016-11-19,40.8283,29.5172,2747004, TAVSANLI-GEBZE (KOCAELI)         ,1.4,,
2016-11-19,38.7197,42.96,2747005, VAN GOLU                         ,1.9,,
2016-11-19,39.8647,35.8563,2747006, KARACAOREN-AKDAGMADENI (YOZGAT)  ,2.2,,
2016-11-19,37.2158,27.8697,2747007, KAYADERE-MILAS (MUGLA)           ,1.8,,
2016-11-19,38.135,32.4902,2747008, BAGRIKURT-SELCUKLU (KONYA)       ,1.4,,
2016-11-19,40.7035,29.4177,2747009, TAVSANLI-ALTINOVA (YALOVA)       ,1.4,,
2016-11-19,37.3007,31.903,2747010, SUSUZ-SEYDISEHIR (KONYA)         ,1.7,,
2016-11-19,36.9687,34.7127,2747011, CIRISTEPE-TARSUS (MERSIN)        ,1.6,,
2016-11-19,37.2868,31.9055,2747012, SUSUZ-SEYDISEHIR (KONYA)         ,1.7,,
2016-11-19,37.1738,37.3112,2747013, SAMMEZREASI-SEHITKAMIL (GAZIANTEP,2.0,,
2016-11-19,38.8663,27.735,2747014, KAPAKLI-AKHISAR (MANISA)         ,2.4,,
2016-11-19,37.246,28.2217,2747015, PASAPINARI-(MUGLA)               ,1.6,,
2016-11-19,37.1658,37.4732,2747016, SUBOGAZI-SEHITKAMIL (GAZIANTEP)  ,1.9,,
2016-11-19,40.1717,30.0227,2747017, KUYUBASI-(BILECIK)               ,1.7,,
2016-11-19,41.8692,26.7158,2747018, HANLIYENICE-LALAPASA (EDIRNE)    ,1.9,,
2016-11-19,40.0542,41.5613,2747019, ACI-PASINLER (ERZURUM)           ,2.4,,
2016-11-19,39.6145,29.4312,2747020, KAYAARASI-TAVSANLI (KUTAHYA)     ,1.9,,
2016-11-19,39.085,28.8962,2747021, DEMIRCI-SIMAV (KUTAHYA)          ,2.0,,
2016-11-19,39.6395,29.3992,2747022, KARAKAYA-TAVSANLI (KUTAHYA)      ,1.7,,
2016-11-19,37.0768,27.5142,2747023, CAMLIK-BODRUM (MUGLA)            ,1.7,,
2016-11-19,38.6438,26.6332,2747024, IZMIR KORFEZI (EGE DENIZI)       ,1.9,,
2016-11-19,37.2248,28.1883,2747025, PASAPINARI-(MUGLA)               ,1.7,,
2016-11-19,37.0923,44.3548,2747026, DERECIK-SEMDINLI (HAKKARI)       ,3.6,,
2016-11-19,39.5913,39.8637,2747027, BALABAN SARIKAYA-UZUMLU (ERZINCAN,2.1,,
2016-11-19,40.1015,27.3407,2747028, SARNICKOY-BIGA (CANAKKALE)       ,1.7,,
2016-11-19,37.684,29.6287,2747029, BEYLERLI-CARDAK (DENIZLI)        ,2.6,,
2016-11-19,38.886,27.8807,2747030, KIZLARALANI-AKHISAR (MANISA)     ,1.8,,
2016-11-19,35.4022,27.7993,2747031, AKDENIZ                          ,2.4,,
2016-11-19,36.077,27.5732,2747032, AKDENIZ                          ,2.0,,
2016-11-19,36.4877,28.9008,2747033, OLUDENIZ ACIKLARI-MUGLA (AKDENIZ),2.1,,
2016-11-19,37.0795,29.1458,2747034, SUCATI-ACIPAYAM (DENIZLI)        ,1.4,,
2016-11-19,40.1967,25.6267,2747035, EGE DENIZI                       ,1.6,,
2016-11-19,38.7877,26.5447,2747036, EGE DENIZI                       ,1.7,,
2016-11-19,35.2698,23.0602,2747037, GIRIT ADASI (AKDENIZ)            ,3.2,,
2016-11-18,37.8278,37.3952,2747038, DUZBAG-CAGLAYANCERIT (KAHRAMANMAR,2.5,,
2016-11-18,39.6958,25.6055,2747039, EGE DENIZI                       ,2.4,,
2016-11-18,39.193,40.3568,2747040, KUSCIMENI-ADAKLI (BINGOL)        ,3.0,,
2016-11-18,37.0113,27.4337,2747041, BODRUM (MUGLA)                   ,2.0,,
2016-11-18,39.1162,24.9295,2747042, EGE DENIZI                       ,2.5,,
2016-11-18,37.034,27.4377,2747043, BODRUM (MUGLA)                   ,1.9,,
2016-11-18,37.288,33.0402,2747044, KARALGAZI-KAZIMKARABEKIR (KARAMAN,1.8,,
2016-11-18,39.1265,29.0295,2747045, KAPIKAYA-SIMAV (KUTAHYA)         ,2.6,,
2016-11-18,37.2132,33.0285,2747046, YOLLARBASI-(KARAMAN)             ,1.6,,
2016-11-18,37.6278,29.9872,2747047, ASAGI MUSLUMLER-(BURDUR)         ,1.5,,
2016-11-18,37.6583,30.0878,2747048, YAZIKOY-(BURDUR)                 ,2.1,,
2016-11-18,36.694,27.4278,2747049, YAZIKOY-DATCA (MUGLA)            ,2.3,,
2016-11-18,40.4282,36.7928,2747050, COKELIKKISLA-(TOKAT)             ,2.7,,
2016-11-18,38.117,39.3205,2747051, PINARLI-CERMIK (DIYARBAKIR)      ,2.0,,
2016-11-18,37.228,28.7608,2747052, KARACAOREN-(MUGLA)               ,1.9,,
2016-11-18,37.2507,28.1745,2747053, BAHCEYAKA-YATAGAN (MUGLA)        ,1.6,,
2016-11-18,36.396,28.7353,2747054, AKDENIZ                          ,3.2,,
2016-11-18,40.2833,41.6842,2747055, KARAPINAR-NARMAN (ERZURUM)       ,2.8,,
2016-11-18,36.9485,30.4025,2747056, GUZLE-KORKUTELI (ANTALYA)        ,1.5,,
2016-11-18,37.0178,27.6762,2747057, MAZIKOY-BODRUM (MUGLA)           ,1.8,,
2016-11-18,36.4373,34.221,2747058, AYAS-ERDEMLI (MERSIN)            ,2.0,,
2016-11-18,37.2317,28.1235,2747059, CUKUROZ-YATAGAN (MUGLA)          ,1.6,,
2016-11-18,37.1672,27.8307,2747060, IKIZKOY-MILAS (MUGLA)            ,1.9,,
2016-11-18,40.9578,22.7413,2747061, YUNANISTAN                       ,2.6,,
2016-11-18,36.3267,29.852,2747062, KARADAG-KAS (ANTALYA)            ,2.1,,
2016-11-18,38.4023,34.2373,2747063, CATALSU-GULAGAC (AKSARAY)        ,1.7,,
2016-11-18,40.4083,30.9768,2747064, SUNNET-GOYNUK (BOLU)             ,1.8,,
2016-11-18,41.2803,28.6647,2747065, TAYAKADIN-ARNAVUTKOY (ISTANBUL)  ,1.9,,
2016-11-18,36.144,33.5497,2747066, BUYUKECELI-GULNAR (MERSIN)       ,1.8,,
2016-11-18,37.1698,27.9772,2747067, YOGUNOLUK-MILAS (MUGLA)          ,1.4,,
2016-11-18,37.0528,34.7062,2747068, BELEN-TARSUS (MERSIN)            ,2.0,,
2016-11-18,37.1837,27.914,2747069, KAYADERE-MILAS (MUGLA)           ,1.9,,
2016-11-18,37.1733,27.884,2747070, KARACAAGAC-MILAS (MUGLA)         ,1.7,,
2016-11-18,37.7425,28.7575,2747071, GUZELBEYLI-KARACASU (AYDIN)      ,2.0,,
2016-11-18,37.2628,28.1665,2747072, BOZARMUT-YATAGAN (MUGLA)         ,1.7,,
2016-11-18,39.4627,31.5987,2747073, TEKOREN-SIVRIHISAR (ESKISEHIR)   ,1.6,,
2016-11-18,40.5625,31.6233,2747074, HIDIRSEYHLER-(BOLU)              ,2.2,,
2016-11-18,37.2975,28.1258,2747075, NEBIKOY-YATAGAN (MUGLA)          ,1.7,,
2016-11-18,34.5703,25.1885,2747076, GIRIT ADASI ACIKLARI (AKDENIZ)   ,3.5,,
